{"type":"Topology","objects":{"districts":{"type":"GeometryCollection","geometries":[{"type":"Point","properties":{"name":"Los Angeles Unified School District","state":"California"},"coordinates":[4461,4980]},{"type":"Point","properties":{"name":"Hillsborough County School District","state":"Florida"},"coordinates":[8615,2630]},{"type":"Point","properties":{"name":"Memphis City School District","state":"Tennessee"},"coordinates":[7766,5478]},{"type":"Point","properties":{"name":"Chicago Public School District 299","state":"Illinois"},"coordinates":[8038,7750]},{"type":"Point","properties":{"name":"Clark County School District","state":"Nevada"},"coordinates":[4814,5834]},{"type":"Point","properties":{"name":"Charlotte-Mecklenburg Schools","state":"North Carolina"},"coordinates":[8845,5478]},{"type":"Point","properties":{"name":"Seattle School District","state":"Washington"},"coordinates":[4000,9999]},{"type":"Point","properties":{"name":"Joplin R-VIII School District","state":"Missouri"},"coordinates":[7230,6231]},{"type":"Point","properties":{"name":"Baltimore City Public Schools","state":"Maryland"},"coordinates":[9307,6985]},{"type":"Point","properties":{"name":"Oakland Unified School District","state":"California"},"coordinates":[4003,6231]},{"type":"Point","properties":{"name":"San Francisco Unified School District","state":"California"},"coordinates":[4000,6231]},{"type":"Point","properties":{"name":"Philadelphia City School District","state":"Pennsylvania"},"coordinates":[9425,7162]},{"type":"Point","properties":{"name":"Tulsa Public Schools","state":"Oklahoma"},"coordinates":[7088,5855]},{"type":"Point","properties":{"name":"District of Columbia Public Schools","state":"District of Columbia"},"coordinates":[9245,6608]},{"type":"Point","properties":{"name":"Davis School District","state":"Utah"},"coordinates":[5235,7610]},{"type":"Point","properties":{"name":"Dallas Independent School District","state":"Texas"},"coordinates":[6999,4348]},{"type":"Point","properties":{"name":"Bridgeport School District","state":"Connecticut"},"coordinates":[9657,7738]},{"type":"Point","properties":{"name":"Boston School District","state":"Massachusetts"},"coordinates":[9884,8115]},{"type":"Point","properties":{"name":"Shelby County School District","state":"Tennessee"},"coordinates":[7804,5478]},{"type":"Point","properties":{"name":"Chatham County School District","state":"Georgia"},"coordinates":[8733,4278]},{"type":"Point","properties":{"name":"Indianapolis Public Schools","state":"Indiana"},"coordinates":[8176,6978]},{"type":"Point","properties":{"name":"Milwaukee School District","state":"Wisconsin"},"coordinates":[8017,8419]},{"type":"Point","properties":{"name":"Guilford County Schools","state":"North Carolina"},"coordinates":[8948,5769]},{"type":"Point","properties":{"name":"Houston Independent School District","state":"Texas"},"coordinates":[7115,3217]},{"type":"Point","properties":{"name":"West Contra Costa Unified School District","state":"California"},"coordinates":[4000,6261]},{"type":"Point","properties":{"name":"Salt Lake City School District","state":"Utah"},"coordinates":[5269,7362]},{"type":"Point","properties":{"name":"Orange County School District","state":"Florida"},"coordinates":[8730,2841]},{"type":"Point","properties":{"name":"Highline School District","state":"Washington"},"coordinates":[4000,9999]},{"type":"Point","properties":{"name":"Mount Diablo Unified School District","state":"California"},"coordinates":[4042,6285]},{"type":"Point","properties":{"name":"Detroit City School District","state":"Michigan"},"coordinates":[8526,8115]},{"type":"Point","properties":{"name":"San Diego City Unified School District","state":"California"},"coordinates":[4576,4348]},{"type":"Point","properties":{"name":"Durham Public Schools","state":"North Carolina"},"coordinates":[9076,5632]},{"type":"Point","properties":{"name":"Denver County School District 1","state":"Colorado"},"coordinates":[6027,6985]},{"type":"Point","properties":{"name":"Kent School District","state":"Washington"},"coordinates":[4000,9999]},{"type":"Point","properties":{"name":"Dade County School District","state":"Florida"},"coordinates":[8845,1715]},{"type":"Point","properties":{"name":"New Caney Independent School District","state":"Texas"},"coordinates":[7115,3594]},{"type":"Point","properties":{"name":"Federal Way School District","state":"Washington"},"coordinates":[4000,9999]},{"type":"Point","properties":{"name":"San Ramon Valley Unified School District","state":"California"},"coordinates":[4097,6231]},{"type":"Point","properties":{"name":"Wilkes County Schools","state":"North Carolina"},"coordinates":[8754,5855]},{"type":"Point","properties":{"name":"Jefferson County School District","state":"Kentucky"},"coordinates":[8268,6608]},{"type":"Point","properties":{"name":"Wake County Schools","state":"North Carolina"},"coordinates":[9077,5478]},{"type":"Point","properties":{"name":"St. Louis City School District","state":"Missouri"},"coordinates":[7692,6608]},{"type":"Point","properties":{"name":"Broward County School District","state":"Florida"},"coordinates":[8842,2059]},{"type":"Point","properties":{"name":"Richmond City Public Schools","state":"Virginia"},"coordinates":[9191,6231]},{"type":"Point","properties":{"name":"Garland Independent School District","state":"Texas"},"coordinates":[6999,4348]},{"type":"Point","properties":{"name":"Greenville County School District","state":"South Carolina"},"coordinates":[8615,5133]},{"type":"Point","properties":{"name":"Albuquerque Public Schools","state":"New Mexico"},"coordinates":[5846,5465]},{"type":"Point","properties":{"name":"Charleston County School District","state":"South Carolina"},"coordinates":[8905,4355]},{"type":"Point","properties":{"name":"Cobb County School District","state":"Georgia"},"coordinates":[8384,4825]},{"type":"Point","properties":{"name":"Cumberland County Schools","state":"North Carolina"},"coordinates":[9057,5399]},{"type":"Point","properties":{"name":"Southwest Independent School District","state":"Texas"},"coordinates":[6769,3217]},{"type":"Point","properties":{"name":"Spartanburg School District 6","state":"South Carolina"},"coordinates":[8677,5101]},{"type":"Point","properties":{"name":"Springfield School District 186","state":"Illinois"},"coordinates":[7807,6985]},{"type":"Point","properties":{"name":"Gaston County Schools","state":"North Carolina"},"coordinates":[8734,5478]},{"type":"Point","properties":{"name":"Pinellas County School District","state":"Florida"},"coordinates":[8615,2522]},{"type":"Point","properties":{"name":"Granite School District","state":"Utah"},"coordinates":[5238,7362]},{"type":"Point","properties":{"name":"Georgetown County School District","state":"South Carolina"},"coordinates":[8947,4769]},{"type":"Point","properties":{"name":"Lake County School District","state":"Florida"},"coordinates":[8730,2841]},{"type":"Point","properties":{"name":"Hawaii Department of Education","state":"Hawaii"},"coordinates":[0,0]},{"type":"Point","properties":{"name":"Ohio County School District","state":"West Virginia"},"coordinates":[8845,7362]},{"type":"Point","properties":{"name":"Midwest City-Del City Schools","state":"Oklahoma"},"coordinates":[6884,5478]},{"type":"Point","properties":{"name":"Nashville-Davidson County School District","state":"Tennessee"},"coordinates":[8153,5855]},{"type":"Point","properties":{"name":"Auburn School District","state":"Washington"},"coordinates":[4000,9999]},{"type":"Point","properties":{"name":"Jordan School District","state":"Utah"},"coordinates":[5229,7362]},{"type":"Point","properties":{"name":"Fremont Unified School District","state":"California"},"coordinates":[4079,6231]},{"type":"Point","properties":{"name":"Gwinnett County School District","state":"Georgia"},"coordinates":[8403,4786]},{"type":"Point","properties":{"name":"Canyons School District","state":"Utah"},"coordinates":[5269,7362]},{"type":"Point","properties":{"name":"Osceola County School District","state":"Florida"},"coordinates":[8730,2841]},{"type":"Point","properties":{"name":"Knox County School District","state":"Tennessee"},"coordinates":[8464,5604]},{"type":"Point","properties":{"name":"Providence School District","state":"Rhode Island"},"coordinates":[9884,7738]},{"type":"Point","properties":{"name":"Blue Springs R-IV School District","state":"Missouri"},"coordinates":[7230,6891]},{"type":"Point","properties":{"name":"Brownsboro Independent School District","state":"Texas"},"coordinates":[7115,4348]},{"type":"Point","properties":{"name":"Duval County School District","state":"Florida"},"coordinates":[8730,3594]},{"type":"Point","properties":{"name":"Polk County School District","state":"Florida"},"coordinates":[8727,2640]},{"type":"Point","properties":{"name":"Monroe County School District","state":"Tennessee"},"coordinates":[8384,5478]},{"type":"Point","properties":{"name":"Nashua School District","state":"New Hampshire"},"coordinates":[9884,8115]},{"type":"Point","properties":{"name":"Hayward Unified School District","state":"California"},"coordinates":[4000,6231]},{"type":"Point","properties":{"name":"Portland School District 1J","state":"Oregon"},"coordinates":[4000,9245]},{"type":"Point","properties":{"name":"Prince George's County Public Schools","state":"Maryland"},"coordinates":[9307,6658]},{"type":"Point","properties":{"name":"Chesapeake City Public Schools","state":"Virginia"},"coordinates":[9307,5855]},{"type":"Point","properties":{"name":"Antioch Unified School District","state":"California"},"coordinates":[4115,6357]},{"type":"Point","properties":{"name":"Wayne County Public Schools","state":"North Carolina"},"coordinates":[9148,5478]},{"type":"Point","properties":{"name":"Livermore Valley Joint Unified School District","state":"California"},"coordinates":[4115,6231]},{"type":"Point","properties":{"name":"Fairfax County Public Schools","state":"Virginia"},"coordinates":[9191,6608]},{"type":"Point","properties":{"name":"Oklahoma City Public Schools","state":"Oklahoma"},"coordinates":[6884,5478]},{"type":"Point","properties":{"name":"Atlanta City School District","state":"Georgia"},"coordinates":[8384,4724]},{"type":"Point","properties":{"name":"Austin Independent School District","state":"Texas"},"coordinates":[6884,3594]},{"type":"Point","properties":{"name":"Alamance-Burlington Schools","state":"North Carolina"},"coordinates":[8961,5826]},{"type":"Point","properties":{"name":"Pasadena Unified School District","state":"California"},"coordinates":[4461,5101]},{"type":"Point","properties":{"name":"Christina School District","state":"Delaware"},"coordinates":[9422,6985]},{"type":"Point","properties":{"name":"Catawba County Schools","state":"North Carolina"},"coordinates":[8735,5478]},{"type":"Point","properties":{"name":"Montgomery County Public Schools","state":"Maryland"},"coordinates":[9210,6954]},{"type":"Point","properties":{"name":"Rochester City School District","state":"New York"},"coordinates":[9191,8492]},{"type":"Point","properties":{"name":"Pasco County School District","state":"Florida"},"coordinates":[8617,2841]},{"type":"Point","properties":{"name":"Forsyth County Schools","state":"North Carolina"},"coordinates":[8845,5855]},{"type":"Point","properties":{"name":"Laclede County R-I School District","state":"Missouri"},"coordinates":[7461,6231]},{"type":"Point","properties":{"name":"Gilroy Unified School District","state":"California"},"coordinates":[4115,6184]},{"type":"Point","properties":{"name":"Washoe County School District","state":"Nevada"},"coordinates":[4346,6985]},{"type":"Point","properties":{"name":"Newark City School District","state":"New Jersey"},"coordinates":[9538,7362]},{"type":"Point","properties":{"name":"Lexington School District 5","state":"South Carolina"},"coordinates":[8730,5101]},{"type":"Point","properties":{"name":"Irvine Unified School District","state":"California"},"coordinates":[4576,4724]},{"type":"Point","properties":{"name":"Buncombe County Schools","state":"North Carolina"},"coordinates":[8615,5478]},{"type":"Point","properties":{"name":"Jackson Public School District","state":"Mississippi"},"coordinates":[7692,4348]},{"type":"Point","properties":{"name":"Palm Beach County School District","state":"Florida"},"coordinates":[8845,2087]},{"type":"Point","properties":{"name":"San Jose Unified School District","state":"California"},"coordinates":[4115,6231]},{"type":"Point","properties":{"name":"Berkeley Unified School District","state":"California"},"coordinates":[4000,6231]},{"type":"Point","properties":{"name":"Cypress-Fairbanks Independent School District","state":"Texas"},"coordinates":[7098,3245]},{"type":"Point","properties":{"name":"Compton Unified School District","state":"California"},"coordinates":[4461,4724]},{"type":"Point","properties":{"name":"Lawrence School District","state":"Massachusetts"},"coordinates":[9884,8115]},{"type":"Point","properties":{"name":"Portland","state":"Maine"},"coordinates":[9999,8492]},{"type":"Point","properties":{"name":"Jefferson Parish School District","state":"Louisiana"},"coordinates":[7692,3319]},{"type":"Point","properties":{"name":"Omaha Public Schools","state":"Nebraska"},"coordinates":[7087,7738]},{"type":"Point","properties":{"name":"Anne Arundel County Public Schools","state":"Maryland"},"coordinates":[9307,6893]},{"type":"Point","properties":{"name":"Worcester School District","state":"Massachusetts"},"coordinates":[9884,8115]},{"type":"Point","properties":{"name":"San Lorenzo Unified School District","state":"California"},"coordinates":[4000,6231]}]}},"arcs":[],"transform":{"scale":[0.008667533420008665,0.002654233677335988],"translate":[-156.66666666666666,20.46031746031746]}}
