{"type":"Topology","objects":{"districts":{"type":"GeometryCollection","geometries":[{"type":"Point","properties":{"state":"New York","score":"1.32812280062","leaid":3611860,"name":"Garrison Union Free School District"},"coordinates":[9301,3813]},{"type":"Point","properties":{"state":"Michigan","score":"1.32783118315","leaid":2625920,"name":"Northport Public School District"},"coordinates":[8084,4788]},{"type":"Point","properties":{"state":"New York","score":"1.32775159981","leaid":3602880,"name":"Amagansett Union Free School District"},"coordinates":[9489,3708]},{"type":"Point","properties":{"state":"Maine","score":"1.32753530922","leaid":2312360,"name":"Southport"},"coordinates":[9750,4458]},{"type":"Point","properties":{"state":"New York","score":"1.32751031686","leaid":3618990,"name":"Menands Union Free School District"},"coordinates":[9323,4153]},{"type":"Point","properties":{"state":"New York","score":"1.32745347946","leaid":3629070,"name":"Tuckahoe Common School District"},"coordinates":[9460,3688]},{"type":"Point","properties":{"state":"New York","score":"1.32745223776","leaid":3619710,"name":"Montauk Union Free School District"},"coordinates":[9508,3723]},{"type":"Point","properties":{"state":"Washington","score":"1.32743320682","leaid":5304530,"name":"Lopez School District"},"coordinates":[4198,5662]},{"type":"Point","properties":{"state":"Vermont","score":"1.32743147413","leaid":5007830,"name":"Strafford School District"},"coordinates":[9465,4451]},{"type":"Point","properties":{"state":"Wisconsin","score":"1.32742434263","leaid":5516740,"name":"Williams Bay School District"},"coordinates":[7780,4124]},{"type":"Point","properties":{"state":"Rhode Island","score":"1.32726576349","leaid":4400690,"name":"New Shoreham School District"},"coordinates":[9549,3757]},{"type":"Point","properties":{"state":"Vermont","score":"1.32725973769","leaid":5001830,"name":"Arlington School District"},"coordinates":[9383,4251]},{"type":"Point","properties":{"state":"New York","score":"1.32725942521","leaid":3626640,"name":"Shelter Island Union Free School District"},"coordinates":[9468,3731]},{"type":"Point","properties":{"state":"Michigan","score":"1.32724889689","leaid":2621390,"name":"Leland Public School District"},"coordinates":[8070,4760]},{"type":"Point","properties":{"state":"Texas","score":"1.3272378009","leaid":4823970,"name":"Hunt Independent School District"},"coordinates":[6654,872]},{"type":"Point","properties":{"state":"California","score":"1.32722322194","leaid":600021,"name":"Sunol Glen Unified School District"},"coordinates":[4304,2828]},{"type":"Point","properties":{"state":"Washington","score":"1.32720837976","leaid":5306540,"name":"Palouse School District"},"coordinates":[4806,5251]},{"type":"Point","properties":{"state":"Colorado","score":"1.32719195777","leaid":803150,"name":"Creede Consolidated School District 1"},"coordinates":[5863,2895]},{"type":"Point","properties":{"state":"New York","score":"1.327187278","leaid":3629190,"name":"Tuxedo Union Free School District"},"coordinates":[9275,3763]},{"type":"Point","properties":{"state":"Wyoming","score":"1.32716163974","leaid":5602670,"name":"Fremont County School District 2"},"coordinates":[5581,4373]},{"type":"Point","properties":{"state":"Washington","score":"1.32707161235","leaid":5301950,"name":"Damman School District"},"coordinates":[4441,5264]},{"type":"Point","properties":{"state":"New York","score":"1.32704517614","leaid":3624060,"name":"Quogue Union Free School District"},"coordinates":[9440,3667]},{"type":"Point","properties":{"state":"Minnesota","score":"1.32703949983","leaid":2718390,"name":"Lynd Public School District"},"coordinates":[7013,4594]},{"type":"Point","properties":{"state":"Vermont","score":"1.32702638134","leaid":5007620,"name":"St. George School District"},"coordinates":[9375,4592]},{"type":"Point","properties":{"state":"New York","score":"1.32701879911","leaid":3620520,"name":"New Suffolk Common School District"},"coordinates":[9454,3712]},{"type":"Point","properties":{"state":"Vermont","score":"1.32701845092","leaid":5006450,"name":"Pittsfield School District"},"coordinates":[9439,4449]},{"type":"Point","properties":{"state":"California","score":"1.32699353703","leaid":631400,"name":"Potter Valley Community Unified School District"},"coordinates":[4177,3277]},{"type":"Point","properties":{"state":"Washington","score":"1.32699157021","leaid":5306990,"name":"Quilcene School District"},"coordinates":[4201,5488]},{"type":"Point","properties":{"state":"Maine","score":"1.32698396093","leaid":2314771,"name":"Chebeague Island"},"coordinates":[9698,4424]},{"type":"Point","properties":{"state":"New York","score":"1.32698043944","leaid":3629760,"name":"Wainscott Common School District"},"coordinates":[9477,3697]},{"type":"Point","properties":{"state":"South Dakota","score":"1.32697478737","leaid":4609300,"name":"Harding County School District 31-1"},"coordinates":[6215,4906]},{"type":"Point","properties":{"state":"Maine","score":"1.32696858337","leaid":2305970,"name":"Georgetown"},"coordinates":[9736,4577]},{"type":"Point","properties":{"state":"California","score":"1.32696570318","leaid":620220,"name":"La Honda-Pescadero Unified School District"},"coordinates":[4254,2738]},{"type":"Point","properties":{"state":"New York","score":"1.32696529518","leaid":3605370,"name":"Bridgehampton Union Free School District"},"coordinates":[9472,3698]},{"type":"Point","properties":{"state":"Maine","score":"1.32691961622","leaid":2311820,"name":"School Administrative District 07"},"coordinates":[9829,4533]},{"type":"Point","properties":{"state":"Vermont","score":"1.32690536904","leaid":5005040,"name":"Kirby School District"},"coordinates":[9515,4605]},{"type":"Point","properties":{"state":"New Jersey","score":"1.32690173357","leaid":3409420,"name":"Manasquan Borough School District"},"coordinates":[9290,3487]},{"type":"Point","properties":{"state":"Colorado","score":"1.32689721953","leaid":805700,"name":"Moffat Consolidated School District 2"},"coordinates":[5969,2933]},{"type":"Point","properties":{"state":"Washington","score":"1.32689641868","leaid":5307860,"name":"Shaw Island School District"},"coordinates":[4192,5683]},{"type":"Point","properties":{"state":"Maine","score":"1.32689230053","leaid":2310320,"name":"Roque Bluffs"},"coordinates":[9974,4680]},{"type":"Point","properties":{"state":"Maine","score":"1.32689208964","leaid":2307590,"name":"Frenchboro"},"coordinates":[9888,4588]},{"type":"Point","properties":{"state":"New York","score":"1.32688364931","leaid":3614880,"name":"Sackets Harbor Central School District"},"coordinates":[9074,4479]},{"type":"Point","properties":{"state":"Texas","score":"1.32688238848","leaid":4842390,"name":"Terlingua Common School District"},"coordinates":[6216,675]},{"type":"Point","properties":{"state":"New Mexico","score":"1.3268816586","leaid":3500630,"name":"Corona Municipal Schools"},"coordinates":[6002,1957]},{"type":"Point","properties":{"state":"Maine","score":"1.32686165457","leaid":2303980,"name":"Carrabassett Valley"},"coordinates":[9708,4597]},{"type":"Point","properties":{"state":"Nebraska","score":"1.32686084543","leaid":3178300,"name":"Walthill Public Schools"},"coordinates":[6950,4012]},{"type":"Point","properties":{"state":"Washington","score":"1.32684348642","leaid":5308850,"name":"Thorp School District"},"coordinates":[4430,5292]},{"type":"Point","properties":{"state":"Vermont","score":"1.32682614895","leaid":5007860,"name":"Stratton School District"},"coordinates":[9432,4220]},{"type":"Point","properties":{"state":"Maine","score":"1.32681900936","leaid":2302980,"name":"Beddington"},"coordinates":[9938,4656]},{"type":"Point","properties":{"state":"Ohio","score":"1.32681863528","leaid":3904897,"name":"Put-in-Bay Local School District"},"coordinates":[8375,3883]},{"type":"Point","properties":{"state":"Maine","score":"1.32681399323","leaid":2311850,"name":"School Administrative District 08"},"coordinates":[9834,4507]},{"type":"Point","properties":{"state":"Maine","score":"1.3267990227","leaid":2305400,"name":"Edgecomb"},"coordinates":[9750,4458]},{"type":"Point","properties":{"state":"Texas","score":"1.32679453871","leaid":4827930,"name":"Lohn Independent School District"},"coordinates":[6646,1198]},{"type":"Point","properties":{"state":"Colorado","score":"1.32679269807","leaid":804620,"name":"Hinsdale County School District RE-1"},"coordinates":[5822,2940]},{"type":"Point","properties":{"state":"Montana","score":"1.32678568254","leaid":3023160,"name":"Roy K-12 Schools"},"coordinates":[5652,5360]},{"type":"Point","properties":{"state":"New York","score":"1.32678093826","leaid":3625410,"name":"Sagaponack Common School District"},"coordinates":[9474,3696]},{"type":"Point","properties":{"state":"New York","score":"1.32677961392","leaid":3621540,"name":"Fire Island Union Free School District"},"coordinates":[9374,3640]},{"type":"Point","properties":{"state":"Vermont","score":"1.32677507298","leaid":5007680,"name":"Stamford School District"},"coordinates":[9392,4170]},{"type":"Point","properties":{"state":"Washington","score":"1.32676819678","leaid":5307950,"name":"Skamania School District"},"coordinates":[4287,4914]},{"type":"Point","properties":{"state":"Idaho","score":"1.32676333925","leaid":1602060,"name":"Meadows Valley School District 11"},"coordinates":[4887,4748]},{"type":"Point","properties":{"state":"Maine","score":"1.32676300769","leaid":2305980,"name":"Gilead"},"coordinates":[9630,4600]},{"type":"Point","properties":{"state":"Vermont","score":"1.32676222006","leaid":5008225,"name":"Twinfield Union School District 33"},"coordinates":[9462,4571]},{"type":"Point","properties":{"state":"New York","score":"1.32675174723","leaid":3621930,"name":"Oysterponds Union Free School District"},"coordinates":[9472,3751]},{"type":"Point","properties":{"state":"New York","score":"1.32674951637","leaid":3616140,"name":"Keene Central School District"},"coordinates":[9317,4543]},{"type":"Point","properties":{"state":"Oregon","score":"1.32674931574","leaid":4112360,"name":"Troy School District 54"},"coordinates":[4772,4998]},{"type":"Point","properties":{"state":"Oregon","score":"1.32674768","leaid":4102190,"name":"Black Butte School District 41"},"coordinates":[4351,4599]},{"type":"Point","properties":{"state":"Maine","score":"1.3267461518","leaid":2312300,"name":"South Bristol"},"coordinates":[9764,4508]},{"type":"Point","properties":{"state":"Maine","score":"1.32674390839","leaid":2314410,"name":"School Administrative District 65"},"coordinates":[9827,4458]},{"type":"Point","properties":{"state":"Maine","score":"1.32674321269","leaid":2303640,"name":"Brooksville"},"coordinates":[9841,4596]},{"type":"Point","properties":{"state":"Maine","score":"1.32674174538","leaid":2300061,"name":"Caratunk"},"coordinates":[9712,4815]},{"type":"Point","properties":{"state":"Maine","score":"1.32674135552","leaid":2300009,"name":"Long Island"},"coordinates":[9695,4412]},{"type":"Point","properties":{"state":"Texas","score":"1.32673959752","leaid":4822020,"name":"Guthrie Common School District"},"coordinates":[6551,1796]},{"type":"Point","properties":{"state":"Maine","score":"1.32673771264","leaid":2308340,"name":"Monhegan Plantation"},"coordinates":[9743,4573]},{"type":"Point","properties":{"state":"Montana","score":"1.32673577274","leaid":3014760,"name":"Hysham K-12 Schools"},"coordinates":[5831,5090]},{"type":"Point","properties":{"state":"Maine","score":"1.32673034978","leaid":2302960,"name":"Beaver Cove"},"coordinates":[9753,4873]},{"type":"Point","properties":{"state":"Maine","score":"1.32672938108","leaid":2304897,"name":"Dennistown Plantation"},"coordinates":[9829,4527]},{"type":"Point","properties":{"state":"Vermont","score":"1.32672938108","leaid":5000013,"name":"Glastenbury School District"},"coordinates":[9381,4200]},{"type":"Point","properties":{"state":"Washington","score":"1.32672835519","leaid":5308430,"name":"Stehekin School District"},"coordinates":[4427,5623]},{"type":"Point","properties":{"state":"New Hampshire","score":"1.32672827475","leaid":3303640,"name":"Hart's Location School District"},"coordinates":[9596,4489]},{"type":"Point","properties":{"state":"Maine","score":"1.32672227071","leaid":2300058,"name":"West Forks Plantation"},"coordinates":[9684,4920]},{"type":"Point","properties":{"state":"Maine","score":"1.32672151114","leaid":2304620,"name":"Cranberry Isles"},"coordinates":[9888,4588]},{"type":"Point","properties":{"state":"Texas","score":"1.32672150275","leaid":4817190,"name":"Divide Independent School District"},"coordinates":[6625,884]},{"type":"Point","properties":{"state":"Vermont","score":"1.32672011319","leaid":5000011,"name":"Buels Gore School District"},"coordinates":[9399,4599]},{"type":"Point","properties":{"state":"Colorado","score":"1.32671742539","leaid":805460,"name":"Mancos School District RE-6"},"coordinates":[5721,2763]},{"type":"Point","properties":{"state":"Texas","score":"1.32671286538","leaid":4828980,"name":"Marathon Independent School District"},"coordinates":[6247,908]},{"type":"Point","properties":{"state":"New Hampshire","score":"1.32671126455","leaid":3302850,"name":"Eaton School District"},"coordinates":[9596,4489]},{"type":"Point","properties":{"state":"Maine","score":"1.32670864255","leaid":2312810,"name":"Talmadge"},"coordinates":[9982,4794]},{"type":"Point","properties":{"state":"New Hampshire","score":"1.32670771424","leaid":3302870,"name":"Ellsworth School District"},"coordinates":[9534,4433]},{"type":"Point","properties":{"state":"Maine","score":"1.32670634818","leaid":2304440,"name":"Cooper"},"coordinates":[9982,4794]},{"type":"Point","properties":{"state":"Maine","score":"1.32670511238","leaid":2308430,"name":"Moro Plantation"},"coordinates":[9874,4994]},{"type":"Point","properties":{"state":"California","score":"1.3267043165","leaid":602070,"name":"Alpine County Unified School District"},"coordinates":[4520,3133]},{"type":"Point","properties":{"state":"New Hampshire","score":"1.32670304158","leaid":3307200,"name":"Windsor School District"},"coordinates":[9514,4265]},{"type":"Point","properties":{"state":"Vermont","score":"1.32670294486","leaid":5005130,"name":"Lemington School District"},"coordinates":[9552,4754]},{"type":"Point","properties":{"state":"Maine","score":"1.32670124551","leaid":2300068,"name":"Whiting"},"coordinates":[9974,4680]},{"type":"Point","properties":{"state":"Maine","score":"1.3266995876","leaid":2308580,"name":"Nashville Plantation"},"coordinates":[9879,5177]},{"type":"Point","properties":{"state":"Alaska","score":"1.32669910883","leaid":200630,"name":"Pelican City School District"},"coordinates":[2809,8124]},{"type":"Point","properties":{"state":"California","score":"1.32669808083","leaid":610680,"name":"Death Valley Unified School District"},"coordinates":[4889,2408]},{"type":"Point","properties":{"state":"Vermont","score":"1.32669595424","leaid":5000012,"name":"Ferdinand School District"},"coordinates":[9480,4737]},{"type":"Point","properties":{"state":"Maine","score":"1.32669589202","leaid":2310050,"name":"Rangeley Plantation"},"coordinates":[9644,4747]},{"type":"Point","properties":{"state":"North Dakota","score":"1.32669543774","leaid":3816050,"name":"Rolette Public School District 29"},"coordinates":[6602,5706]},{"type":"Point","properties":{"state":"Maine","score":"1.32669485448","leaid":2307770,"name":"Macwahoc Plantation"},"coordinates":[9982,4794]},{"type":"Point","properties":{"state":"Idaho","score":"1.3266946895","leaid":1603210,"name":"Three Creek Joint Elementary School District 416"},"coordinates":[5033,4023]},{"type":"Point","properties":{"state":"Texas","score":"1.32669216117","leaid":4842720,"name":"Three Way Independent School District"},"coordinates":[6790,1414]},{"type":"Point","properties":{"state":"Texas","score":"1.32669199756","leaid":4839060,"name":"San Vincente Independent School District"},"coordinates":[6250,677]},{"type":"Point","properties":{"state":"Maine","score":"1.32669099968","leaid":2313200,"name":"Waite"},"coordinates":[9982,4794]},{"type":"Point","properties":{"state":"Oregon","score":"1.3266881652","leaid":4100990,"name":"Adel School District 21"},"coordinates":[4464,4024]},{"type":"Point","properties":{"state":"Maine","score":"1.32668612023","leaid":2300052,"name":"The Forks Plantation"},"coordinates":[9723,4701]},{"type":"Point","properties":{"state":"Illinois","score":"1.32668044891","leaid":1723640,"name":"Brooklyn Community Unit School District 188"},"coordinates":[7610,3105]},{"type":"Point","properties":{"state":"Idaho","score":"1.32668006607","leaid":1602730,"name":"Prairie Elementary School District 191"},"coordinates":[4962,4365]},{"type":"Point","properties":{"state":"New Mexico","score":"1.32667983927","leaid":3501470,"name":"Lake Arthur Municipal Schools"},"coordinates":[6130,1633]},{"type":"Point","properties":{"state":"Texas","score":"1.32667965151","leaid":4843740,"name":"Valentine Independent School District"},"coordinates":[6117,1006]},{"type":"Point","properties":{"state":"Vermont","score":"1.3266795031","leaid":5005340,"name":"Maidstone School District"},"coordinates":[9515,4605]},{"type":"Point","properties":{"state":"Texas","score":"1.32667945721","leaid":4825290,"name":"Kelton Independent School District"},"coordinates":[6573,2258]},{"type":"Point","properties":{"state":"Maine","score":"1.32667846381","leaid":2306600,"name":"Highland Plantation"},"coordinates":[9709,4735]},{"type":"Point","properties":{"state":"Colorado","score":"1.32667623171","leaid":805160,"name":"La Veta School District RE-2"},"coordinates":[6063,2807]},{"type":"Point","properties":{"state":"Maine","score":"1.32667609085","leaid":2313590,"name":"Westmanland"},"coordinates":[9909,5242]},{"type":"Point","properties":{"state":"North Dakota","score":"1.32667589788","leaid":3816510,"name":"Selfridge Public School District 8"},"coordinates":[6489,5024]},{"type":"Point","properties":{"state":"Maine","score":"1.32667501231","leaid":2305160,"name":"Drew Plantation"},"coordinates":[9982,4794]},{"type":"Point","properties":{"state":"Oklahoma","score":"1.32667487086","leaid":4032880,"name":"Wilson Public Schools"},"coordinates":[6998,2286]},{"type":"Point","properties":{"state":"Maine","score":"1.32667452643","leaid":2302790,"name":"Bancroft"},"coordinates":[9934,4926]},{"type":"Point","properties":{"state":"Colorado","score":"1.32667438233","leaid":803240,"name":"De Beque School District 49-JT"},"coordinates":[5729,3281]},{"type":"Point","properties":{"state":"Maine","score":"1.32667392259","leaid":2306540,"name":"Hersey"},"coordinates":[9874,4994]},{"type":"Point","properties":{"state":"Idaho","score":"1.3266710504","leaid":1600090,"name":"Arbon Elementary School District 383"},"coordinates":[5276,4120]},{"type":"Point","properties":{"state":"Wisconsin","score":"1.32667060611","leaid":5510710,"name":"Norris School District"},"coordinates":[7810,4196]},{"type":"Point","properties":{"state":"Maine","score":"1.3266676246","leaid":2313740,"name":"Willimantic"},"coordinates":[9753,4873]},{"type":"Point","properties":{"state":"New York","score":"1.32666517387","leaid":3611100,"name":"Fishers Island Union Free School District"},"coordinates":[9500,3780]},{"type":"Point","properties":{"state":"Maine","score":"1.32666441081","leaid":2300059,"name":"Lake View Plantation"},"coordinates":[9852,4736]},{"type":"Point","properties":{"state":"Texas","score":"1.32666422227","leaid":4823760,"name":"Huckabay Independent School District"},"coordinates":[6762,1463]},{"type":"Point","properties":{"state":"Oregon","score":"1.3266641381","leaid":4101500,"name":"Arock School District 81"},"coordinates":[4758,4212]},{"type":"Point","properties":{"state":"Maine","score":"1.32666299635","leaid":2309240,"name":"Orient"},"coordinates":[9934,4926]},{"type":"Point","properties":{"state":"Maine","score":"1.32666179548","leaid":2304500,"name":"Coplin Plantation"},"coordinates":[9674,4709]},{"type":"Point","properties":{"state":"Maine","score":"1.32665686044","leaid":2306810,"name":"Islesboro"},"coordinates":[9824,4564]},{"type":"Point","properties":{"state":"Maine","score":"1.32665657772","leaid":2304880,"name":"Deblois"},"coordinates":[9938,4656]},{"type":"Point","properties":{"state":"Maine","score":"1.32665578241","leaid":2307440,"name":"Lincoln Plantation"},"coordinates":[9644,4747]},{"type":"Point","properties":{"state":"Colorado","score":"1.32665543697","leaid":806990,"name":"Vilas School District RE-5"},"coordinates":[6330,2771]},{"type":"Point","properties":{"state":"Maine","score":"1.32665508505","leaid":2311910,"name":"School Administrative District 76"},"coordinates":[9888,4588]},{"type":"Point","properties":{"state":"Maine","score":"1.32665312015","leaid":2306780,"name":"Isle au Haut"},"coordinates":[9850,4583]},{"type":"Point","properties":{"state":"Colorado","score":"1.32665109946","leaid":806300,"name":"Mountain Valley School District RE-1"},"coordinates":[5945,2956]},{"type":"Point","properties":{"state":"Maine","score":"1.32665090219","leaid":2313500,"name":"Wesley"},"coordinates":[9974,4680]},{"type":"Point","properties":{"state":"Texas","score":"1.32665051096","leaid":4833570,"name":"Olfen Independent School District"},"coordinates":[6589,1272]},{"type":"Point","properties":{"state":"Idaho","score":"1.32664827287","leaid":1601200,"name":"Genesee Joint School District 282"},"coordinates":[4820,5158]},{"type":"Point","properties":{"state":"Washington","score":"1.3266476072","leaid":5308370,"name":"Star School District"},"coordinates":[4634,5129]},{"type":"Point","properties":{"state":"Texas","score":"1.32664758413","leaid":4826070,"name":"La Gloria Independent School District"},"coordinates":[6780,149]},{"type":"Point","properties":{"state":"Texas","score":"1.32664684876","leaid":4825410,"name":"Kenedy County-wide Common School District"},"coordinates":[6815,131]},{"type":"Point","properties":{"state":"Texas","score":"1.32664584923","leaid":4821560,"name":"Grandview-Hopkins Independent School District"},"coordinates":[6480,2233]},{"type":"Point","properties":{"state":"New Mexico","score":"1.3266449736","leaid":3501020,"name":"Floyd Municipal Schools"},"coordinates":[6212,1950]},{"type":"Point","properties":{"state":"Maine","score":"1.32664494914","leaid":2307200,"name":"Lakeville"},"coordinates":[9982,4794]},{"type":"Point","properties":{"state":"Washington","score":"1.32664452912","leaid":5300450,"name":"Benge School District"},"coordinates":[4698,5251]},{"type":"Point","properties":{"state":"Oklahoma","score":"1.32663962194","leaid":4020080,"name":"Millwood Public Schools"},"coordinates":[6848,2294]},{"type":"Point","properties":{"state":"Oregon","score":"1.32663936762","leaid":4109960,"name":"Plush School District 18"},"coordinates":[4511,4082]},{"type":"Point","properties":{"state":"Iowa","score":"1.32663898842","leaid":1928560,"name":"United Community School District"},"coordinates":[7234,3981]},{"type":"Point","properties":{"state":"Texas","score":"1.32663734778","leaid":4838670,"name":"Samnorwood Independent School District"},"coordinates":[6556,2167]},{"type":"Point","properties":{"state":"Texas","score":"1.32663638068","leaid":4821180,"name":"Gordon Independent School District"},"coordinates":[6755,1517]},{"type":"Point","properties":{"state":"Michigan","score":"1.32663507921","leaid":2622230,"name":"Mackinac Island Public Schools"},"coordinates":[8185,4977]},{"type":"Point","properties":{"state":"Texas","score":"1.32663444877","leaid":4837500,"name":"Rochelle Independent School District"},"coordinates":[6668,1172]},{"type":"Point","properties":{"state":"Maine","score":"1.32663401006","leaid":2313070,"name":"Upton"},"coordinates":[9630,4600]},{"type":"Point","properties":{"state":"Texas","score":"1.32663378763","leaid":4844490,"name":"Walnut Bend Independent School District"},"coordinates":[6891,1836]},{"type":"Point","properties":{"state":"Oregon","score":"1.32663224371","leaid":4106120,"name":"Harper School District 66"},"coordinates":[4750,4459]},{"type":"Point","properties":{"state":"Texas","score":"1.32662983465","leaid":4822620,"name":"Harrold Independent School District"},"coordinates":[6686,1914]},{"type":"Point","properties":{"state":"Oregon","score":"1.32662939287","leaid":4109750,"name":"Pinehurst School District 94"},"coordinates":[4250,4002]},{"type":"Point","properties":{"state":"Vermont","score":"1.32662571292","leaid":5002760,"name":"Brunswick School District"},"coordinates":[9552,4754]},{"type":"Point","properties":{"state":"Texas","score":"1.32662494325","leaid":4835370,"name":"Port Aransas Independent School District"},"coordinates":[6891,290]},{"type":"Point","properties":{"state":"Oklahoma","score":"1.32662292684","leaid":4022950,"name":"Lomega Public Schools"},"coordinates":[6774,2380]},{"type":"Point","properties":{"state":"Maine","score":"1.3266214117","leaid":2303990,"name":"Carroll Plantation"},"coordinates":[9982,4794]},{"type":"Point","properties":{"state":"Maine","score":"1.32661943624","leaid":2306150,"name":"Great Lake Stream Plantation"},"coordinates":[9982,4794]},{"type":"Point","properties":{"state":"Vermont","score":"1.3266149158","leaid":5006900,"name":"Rochester School District"},"coordinates":[9419,4461]},{"type":"Point","properties":{"state":"Maine","score":"1.32661248339","leaid":2308135,"name":"Meddybemps"},"coordinates":[9982,4794]},{"type":"Point","properties":{"state":"Maine","score":"1.32661197447","leaid":2309630,"name":"Penobscot"},"coordinates":[9847,4616]},{"type":"Point","properties":{"state":"Michigan","score":"1.32661072196","leaid":2622260,"name":"Mackinaw City Public Schools"},"coordinates":[8175,4957]},{"type":"Point","properties":{"state":"Maine","score":"1.3266093931","leaid":2310140,"name":"Reed Plantation"},"coordinates":[9982,4794]},{"type":"Point","properties":{"state":"Maine","score":"1.32660935898","leaid":2309810,"name":"Pleasant Ridge Plantation"},"coordinates":[9743,4573]},{"type":"Point","properties":{"state":"Washington","score":"1.32660935808","leaid":5307530,"name":"Roosevelt School District"},"coordinates":[4478,4947]},{"type":"Point","properties":{"state":"Texas","score":"1.32660924891","leaid":4816350,"name":"Dawson Independent School District"},"coordinates":[6363,1616]},{"type":"Point","properties":{"state":"Maine","score":"1.32660774971","leaid":2305380,"name":"East Range Community School District"},"coordinates":[9950,4865]},{"type":"Point","properties":{"state":"Maine","score":"1.3266070311","leaid":2303390,"name":"Bowerbank"},"coordinates":[9775,4790]},{"type":"Point","properties":{"state":"Massachusetts","score":"1.32660617785","leaid":2505340,"name":"Gosnold School District"},"coordinates":[9584,3938]},{"type":"Point","properties":{"state":"Washington","score":"1.32660485335","leaid":5308490,"name":"Steptoe School District"},"coordinates":[4777,5276]},{"type":"Point","properties":{"state":"Washington","score":"1.32660323982","leaid":5304290,"name":"Lamont School District"},"coordinates":[4719,5327]},{"type":"Point","properties":{"state":"Vermont","score":"1.32660193378","leaid":5008370,"name":"Victory School District"},"coordinates":[9515,4605]},{"type":"Point","properties":{"state":"Maine","score":"1.32660114162","leaid":2313080,"name":"Vanceboro"},"coordinates":[9934,4926]},{"type":"Point","properties":{"state":"Nebraska","score":"1.32660090374","leaid":3173560,"name":"McPherson County Schools"},"coordinates":[6485,3858]},{"type":"Point","properties":{"state":"Texas","score":"1.32659944007","leaid":4828140,"name":"Loop Independent School District"},"coordinates":[6333,1610]},{"type":"Point","properties":{"state":"Maine","score":"1.32659702979","leaid":2304650,"name":"Crawford"},"coordinates":[9999,4797]},{"type":"Point","properties":{"state":"Nebraska","score":"1.32659469847","leaid":3105520,"name":"Crawford Public Schools"},"coordinates":[6230,4151]},{"type":"Point","properties":{"state":"Montana","score":"1.32659269073","leaid":3027930,"name":"Whitewater K-12 Schools"},"coordinates":[5790,5732]},{"type":"Point","properties":{"state":"Washington","score":"1.32659244129","leaid":5308400,"name":"Starbuck School District"},"coordinates":[4696,5149]},{"type":"Point","properties":{"state":"Montana","score":"1.32659220401","leaid":3016710,"name":"Lima K-12 Schools"},"coordinates":[5272,4659]},{"type":"Point","properties":{"state":"Texas","score":"1.32659095547","leaid":4841130,"name":"Spring Creek Independent School District"},"coordinates":[6462,2302]},{"type":"Point","properties":{"state":"Minnesota","score":"1.32658950763","leaid":2733720,"name":"Nett Lake Public School District"},"coordinates":[7305,5562]},{"type":"Point","properties":{"state":"Texas","score":"1.3265879574","leaid":4834380,"name":"Patton Springs Independent School District"},"coordinates":[6500,1833]},{"type":"Point","properties":{"state":"New Mexico","score":"1.32658766082","leaid":3501140,"name":"Grady Municipal Schools"},"coordinates":[6239,2108]},{"type":"Point","properties":{"state":"Alaska","score":"1.32658661964","leaid":200680,"name":"St. Marys City School District"},"coordinates":[0,9188]},{"type":"Point","properties":{"state":"Alaska","score":"1.32658473713","leaid":200800,"name":"Chugach School District"},"coordinates":[1390,8950]},{"type":"Point","properties":{"state":"Texas","score":"1.32658354097","leaid":4844370,"name":"Walcott Independent School District"},"coordinates":[6292,2128]},{"type":"Point","properties":{"state":"Vermont","score":"1.32658209498","leaid":5002280,"name":"Bloomfield School District"},"coordinates":[9552,4754]},{"type":"Point","properties":{"state":"Maine","score":"1.32658163425","leaid":2310560,"name":"School Administration District 10"},"coordinates":[9859,5339]},{"type":"Point","properties":{"state":"Texas","score":"1.32658044709","leaid":4836420,"name":"Ramirez Common School District"},"coordinates":[6750,163]},{"type":"Point","properties":{"state":"Washington","score":"1.32657926557","leaid":5305040,"name":"Mill A School District"},"coordinates":[4329,4951]},{"type":"Point","properties":{"state":"Maine","score":"1.3265786318","leaid":2309090,"name":"Northfield"},"coordinates":[9974,4680]},{"type":"Point","properties":{"state":"Maine","score":"1.32657836709","leaid":2308140,"name":"Medford"},"coordinates":[9852,4736]},{"type":"Point","properties":{"state":"Colorado","score":"1.32657813537","leaid":803630,"name":"Edison School District 54-JT"},"coordinates":[6151,3095]},{"type":"Point","properties":{"state":"Kansas","score":"1.32657595915","leaid":2007080,"name":"Healy Public Schools Unified School District 468"},"coordinates":[6521,3091]},{"type":"Point","properties":{"state":"Maine","score":"1.32657580335","leaid":2300005,"name":"Grand Isle"},"coordinates":[9886,5366]},{"type":"Point","properties":{"state":"Missouri","score":"1.32657349063","leaid":2923250,"name":"Osborn R-O School District"},"coordinates":[7173,3389]},{"type":"Point","properties":{"state":"Texas","score":"1.32657346391","leaid":4840890,"name":"Southland Independent School District"},"coordinates":[6423,1728]},{"type":"Point","properties":{"state":"Texas","score":"1.32657302293","leaid":4815360,"name":"Cotton Center Independent School District"},"coordinates":[6377,1880]},{"type":"Point","properties":{"state":"New York","score":"1.32657281867","leaid":3623130,"name":"Piseco Common School District"},"coordinates":[9243,4345]},{"type":"Point","properties":{"state":"Texas","score":"1.32656507602","leaid":4833210,"name":"Novice Independent School District"},"coordinates":[6696,1308]},{"type":"Point","properties":{"state":"Oklahoma","score":"1.32656485905","leaid":4011580,"name":"Felt Public Schools"},"coordinates":[6294,2560]},{"type":"Point","properties":{"state":"Michigan","score":"1.32656428534","leaid":2604350,"name":"Beaver Island Community School"},"coordinates":[8094,4948]},{"type":"Point","properties":{"state":"Colorado","score":"1.32656354572","leaid":805970,"name":"Ouray School District R-1"},"coordinates":[5785,2939]},{"type":"Point","properties":{"state":"Vermont","score":"1.32656295016","leaid":5007200,"name":"Searsburg School District"},"coordinates":[9411,4201]},{"type":"Point","properties":{"state":"Ohio","score":"1.32656076211","leaid":3904679,"name":"Kelleys Island Local School District"},"coordinates":[8389,3825]},{"type":"Point","properties":{"state":"Minnesota","score":"1.32655944152","leaid":2728960,"name":"Pine Point Public School District"},"coordinates":[7065,5268]},{"type":"Point","properties":{"state":"New Mexico","score":"1.32655905573","leaid":3501800,"name":"Maxwell Municipal Schools"},"coordinates":[6111,2554]},{"type":"Point","properties":{"state":"Texas","score":"1.3265586815","leaid":4811040,"name":"Boys Ranch Independent School District"},"coordinates":[6350,2292]},{"type":"Point","properties":{"state":"South Dakota","score":"1.32655814999","leaid":4675600,"name":"Smee School District 15-3"},"coordinates":[6530,4917]},{"type":"Point","properties":{"state":"Texas","score":"1.32655807828","leaid":4831320,"name":"Moran Independent School District"},"coordinates":[6671,1516]},{"type":"Point","properties":{"state":"Texas","score":"1.32655788736","leaid":4817400,"name":"Doss Consolidated Common School District"},"coordinates":[6676,969]},{"type":"Point","properties":{"state":"Maine","score":"1.32655755928","leaid":2300063,"name":"Lowell"},"coordinates":[9868,4849]},{"type":"Point","properties":{"state":"Maine","score":"1.32655732135","leaid":2309390,"name":"Otis"},"coordinates":[9875,4637]},{"type":"Point","properties":{"state":"Mississippi","score":"1.32655527833","leaid":2800690,"name":"Benoit School District"},"coordinates":[7515,1788]},{"type":"Point","properties":{"state":"Texas","score":"1.32655475379","leaid":4821300,"name":"Grady Independent School District"},"coordinates":[6384,1454]},{"type":"Point","properties":{"state":"New York","score":"1.32655093518","leaid":3620730,"name":"Newcomb Central School District"},"coordinates":[9279,4487]},{"type":"Point","properties":{"state":"New Mexico","score":"1.32655041507","leaid":3501980,"name":"Mesa Vista Consolidated Schools"},"coordinates":[5940,2500]},{"type":"Point","properties":{"state":"Texas","score":"1.32654978647","leaid":4807530,"name":"Agua Dulce Independent School District"},"coordinates":[6802,278]},{"type":"Point","properties":{"state":"Montana","score":"1.32654891295","leaid":3024990,"name":"Stanford K-12 Schools"},"coordinates":[5520,5313]},{"type":"Point","properties":{"state":"Texas","score":"1.32654845149","leaid":4800001,"name":"Crosbyton Consolidated Independent School District"},"coordinates":[6455,1805]},{"type":"Point","properties":{"state":"New York","score":"1.3265480735","leaid":3615330,"name":"Inlet Common School District"},"coordinates":[9212,4428]},{"type":"Point","properties":{"state":"Wyoming","score":"1.32654744147","leaid":5605820,"name":"Washakie County School District 2"},"coordinates":[5809,4503]},{"type":"Point","properties":{"state":"Idaho","score":"1.32654666482","leaid":1602610,"name":"Pleasant Valley Elementary School District 364"},"coordinates":[4813,4208]},{"type":"Point","properties":{"state":"Maine","score":"1.3265460285","leaid":2302880,"name":"Baring Plantation"},"coordinates":[9999,4797]},{"type":"Point","properties":{"state":"Texas","score":"1.32654338257","leaid":4835820,"name":"Priddy Independent School District"},"coordinates":[6740,1289]},{"type":"Point","properties":{"state":"New Mexico","score":"1.32653982106","leaid":3502490,"name":"Springer Municipal Schools"},"coordinates":[6107,2509]},{"type":"Point","properties":{"state":"Missouri","score":"1.32653949531","leaid":2916200,"name":"Jefferson C-123 School District"},"coordinates":[7139,3521]},{"type":"Point","properties":{"state":"Vermont","score":"1.32653655506","leaid":5004830,"name":"Ira School District"},"coordinates":[9374,4369]},{"type":"Point","properties":{"state":"Oregon","score":"1.32653538649","leaid":4112540,"name":"Ukiah School District 80"},"coordinates":[4611,4789]},{"type":"Point","properties":{"state":"Texas","score":"1.32653443419","leaid":4823190,"name":"Highland Independent School District"},"coordinates":[6532,1463]},{"type":"Point","properties":{"state":"Kansas","score":"1.32653401761","leaid":2012900,"name":"Weskan Unified School District 242"},"coordinates":[6380,3159]},{"type":"Point","properties":{"state":"New Hampshire","score":"1.32653296083","leaid":3301830,"name":"Benton School District"},"coordinates":[9501,4519]},{"type":"Point","properties":{"state":"Texas","score":"1.32652609504","leaid":4807500,"name":"Adrian Independent School District"},"coordinates":[6307,2225]},{"type":"Point","properties":{"state":"Texas","score":"1.3265260426","leaid":4811910,"name":"Buena Vista Independent School District"},"coordinates":[6304,1185]},{"type":"Point","properties":{"state":"Texas","score":"1.32652490552","leaid":4833090,"name":"Northside Independent School District"},"coordinates":[6658,1973]},{"type":"Point","properties":{"state":"Vermont","score":"1.32652447689","leaid":5001920,"name":"Baltimore School District"},"coordinates":[9442,4301]},{"type":"Point","properties":{"state":"New Hampshire","score":"1.3265210686","leaid":3302510,"name":"Coos County School District"},"coordinates":[9552,4749]},{"type":"Point","properties":{"state":"Kansas","score":"1.32652023005","leaid":2004080,"name":"Brewster Unified School District 314"},"coordinates":[6441,3289]},{"type":"Point","properties":{"state":"Oregon","score":"1.32651882076","leaid":4101590,"name":"Ashwood School District 8"},"coordinates":[4421,4694]},{"type":"Point","properties":{"state":"North Dakota","score":"1.32651827374","leaid":3820230,"name":"Wolford Public School District 1"},"coordinates":[6616,5663]},{"type":"Point","properties":{"state":"New York","score":"1.32651581651","leaid":3617760,"name":"Long Lake Central School District"},"coordinates":[9251,4487]},{"type":"Point","properties":{"state":"Colorado","score":"1.32651574354","leaid":807410,"name":"Woodlin School District R-104"},"coordinates":[6218,3399]},{"type":"Point","properties":{"state":"Vermont","score":"1.32651430554","leaid":5007170,"name":"Sandgate School District"},"coordinates":[9383,4251]},{"type":"Point","properties":{"state":"Texas","score":"1.32651355568","leaid":4845840,"name":"Wildorado Independent School District"},"coordinates":[6355,2208]},{"type":"Point","properties":{"state":"Texas","score":"1.32651006489","leaid":4826970,"name":"Lazbuddie Independent School District"},"coordinates":[6313,1996]},{"type":"Point","properties":{"state":"Washington","score":"1.32650825123","leaid":5305820,"name":"North River School District"},"coordinates":[4137,5216]},{"type":"Point","properties":{"state":"Montana","score":"1.32650708812","leaid":3002640,"name":"Bainville K-12 Schools"},"coordinates":[6144,5570]},{"type":"Point","properties":{"state":"New Mexico","score":"1.32650701591","leaid":3501920,"name":"Mosquero Municipal Schools"},"coordinates":[6173,2357]},{"type":"Point","properties":{"state":"Pennsylvania","score":"1.32650689886","leaid":4204090,"name":"Bryn Athyn School District"},"coordinates":[9184,3488]},{"type":"Point","properties":{"state":"Nevada","score":"1.32650643056","leaid":3200150,"name":"Esmeralda County School District"},"coordinates":[4789,2858]},{"type":"Point","properties":{"state":"Washington","score":"1.32650634935","leaid":5301500,"name":"Colton School District"},"coordinates":[4799,5161]},{"type":"Point","properties":{"state":"Maine","score":"1.32650604178","leaid":2312180,"name":"Shirley"},"coordinates":[9753,4873]},{"type":"Point","properties":{"state":"Wisconsin","score":"1.32650414757","leaid":5515570,"name":"Washington School District"},"coordinates":[7947,4848]},{"type":"Point","properties":{"state":"Texas","score":"1.32650091894","leaid":4813740,"name":"Cherokee Independent School District"},"coordinates":[6720,1108]},{"type":"Point","properties":{"state":"Montana","score":"1.32650084436","leaid":3016290,"name":"Lavina K-12 Schools"},"coordinates":[5654,5090]},{"type":"Point","properties":{"state":"New Jersey","score":"1.32650077206","leaid":3401950,"name":"Boonton Town School District"},"coordinates":[9253,3688]},{"type":"Point","properties":{"state":"New York","score":"1.32649483953","leaid":3623970,"name":"Putnam Central School District"},"coordinates":[9358,4428]},{"type":"Point","properties":{"state":"Texas","score":"1.32649066125","leaid":4841460,"name":"Star Independent School District"},"coordinates":[6760,1235]},{"type":"Point","properties":{"state":"Washington","score":"1.32648886674","leaid":5303720,"name":"Index School District"},"coordinates":[4338,5487]},{"type":"Point","properties":{"state":"Oregon","score":"1.3264860897","leaid":4101350,"name":"Annex School District 29"},"coordinates":[4814,4556]},{"type":"Point","properties":{"state":"Colorado","score":"1.32648530273","leaid":806570,"name":"Silverton School District 1"},"coordinates":[5786,2885]},{"type":"Point","properties":{"state":"Washington","score":"1.3264852667","leaid":5303780,"name":"Kahlotus School District"},"coordinates":[4651,5181]},{"type":"Point","properties":{"state":"California","score":"1.32648434386","leaid":615150,"name":"Geyserville Unified School District"},"coordinates":[4199,3121]},{"type":"Point","properties":{"state":"Oklahoma","score":"1.32648370504","leaid":4016740,"name":"Kremlin-Hillsdale Schools"},"coordinates":[6811,2555]},{"type":"Point","properties":{"state":"Maine","score":"1.32648181592","leaid":2313710,"name":"Whitneyville"},"coordinates":[9974,4680]},{"type":"Point","properties":{"state":"California","score":"1.32647935652","leaid":600038,"name":"Mattole Unified School District"},"coordinates":[4054,3538]},{"type":"Point","properties":{"state":"Maine","score":"1.32647705051","leaid":2303610,"name":"Brooklin"},"coordinates":[9850,4583]},{"type":"Point","properties":{"state":"Colorado","score":"1.32647688232","leaid":805340,"name":"Lone Star School District 101"},"coordinates":[6288,3545]},{"type":"Point","properties":{"state":"Maine","score":"1.32647550657","leaid":2304900,"name":"Dennysville"},"coordinates":[9999,4797]},{"type":"Point","properties":{"state":"Washington","score":"1.32647480219","leaid":5307980,"name":"Skykomish School District"},"coordinates":[4358,5459]},{"type":"Point","properties":{"state":"New York","score":"1.32647208383","leaid":3619530,"name":"Minerva Central School District"},"coordinates":[9301,4434]},{"type":"Point","properties":{"state":"Washington","score":"1.32646792997","leaid":5306510,"name":"Palisades School District"},"coordinates":[4509,5382]},{"type":"Point","properties":{"state":"Colorado","score":"1.3264674073","leaid":804980,"name":"Kim Reorganized School District 88"},"coordinates":[6235,2738]},{"type":"Point","properties":{"state":"Colorado","score":"1.32646737894","leaid":806930,"name":"Plainview School District RE-2"},"coordinates":[6354,3056]},{"type":"Point","properties":{"state":"Oregon","score":"1.32646585138","leaid":4105250,"name":"Fossil School District 21J"},"coordinates":[4478,4754]},{"type":"Point","properties":{"state":"Maine","score":"1.32646362879","leaid":2302280,"name":"Alexander"},"coordinates":[9999,4797]},{"type":"Point","properties":{"state":"Washington","score":"1.3264627773","leaid":5309570,"name":"Washtucna School District"},"coordinates":[4677,5210]},{"type":"Point","properties":{"state":"New Mexico","score":"1.3264627463","leaid":3500840,"name":"Elida Municipal Schools"},"coordinates":[6204,1880]},{"type":"Point","properties":{"state":"Colorado","score":"1.32646230615","leaid":802760,"name":"Campo School District RE-6"},"coordinates":[6316,2701]},{"type":"Point","properties":{"state":"Washington","score":"1.32645941747","leaid":5306630,"name":"Paterson School District"},"coordinates":[4541,4998]},{"type":"Point","properties":{"state":"Oklahoma","score":"1.32645931873","leaid":4013140,"name":"Graham Public Schools"},"coordinates":[6988,2244]},{"type":"Point","properties":{"state":"Alaska","score":"1.32645886448","leaid":200130,"name":"Galena City School District"},"coordinates":[658,9891]},{"type":"Point","properties":{"state":"Texas","score":"1.32645506252","leaid":4816650,"name":"Dell City Independent School District"},"coordinates":[6043,1359]},{"type":"Point","properties":{"state":"Alaska","score":"1.32645313415","leaid":200730,"name":"Chatham School District"},"coordinates":[2981,8005]},{"type":"Point","properties":{"state":"Texas","score":"1.3264520114","leaid":4839300,"name":"Santa Gertrudis Independent School District"},"coordinates":[6806,209]},{"type":"Point","properties":{"state":"Oklahoma","score":"1.32645115372","leaid":4022920,"name":"Olustee Public Schools"},"coordinates":[6646,2036]},{"type":"Point","properties":{"state":"Texas","score":"1.32644923021","leaid":4820100,"name":"Fort Davis Independent School District"},"coordinates":[6179,1006]},{"type":"Point","properties":{"state":"Texas","score":"1.32644899546","leaid":4838490,"name":"Sabine Pass Independent School District"},"coordinates":[7221,783]},{"type":"Point","properties":{"state":"Nebraska","score":"1.32644823741","leaid":3170020,"name":"Elba Public Schools"},"coordinates":[6734,3788]},{"type":"Point","properties":{"state":"Oregon","score":"1.32644482695","leaid":4111640,"name":"Spray School District 1"},"coordinates":[4522,4711]},{"type":"Point","properties":{"state":"North Dakota","score":"1.32644355007","leaid":3807950,"name":"Goodrich Public School District 16"},"coordinates":[6572,5397]},{"type":"Point","properties":{"state":"Nebraska","score":"1.32644072927","leaid":3178670,"name":"Wheeler Central Schools"},"coordinates":[6736,3944]},{"type":"Point","properties":{"state":"Alaska","score":"1.32643984206","leaid":200715,"name":"Tanana School District"},"coordinates":[1156,9999]},{"type":"Point","properties":{"state":"Maine","score":"1.32643939012","leaid":2304160,"name":"Charlotte"},"coordinates":[9999,4797]},{"type":"Point","properties":{"state":"Kansas","score":"1.32643699305","leaid":2011040,"name":"Golden Plains Unified School District 316"},"coordinates":[6525,3334]},{"type":"Point","properties":{"state":"Maine","score":"1.32643690233","leaid":2307980,"name":"Marshfield"},"coordinates":[9974,4680]},{"type":"Point","properties":{"state":"Texas","score":"1.32643459048","leaid":4839120,"name":"Sands Consolidated Independent School District"},"coordinates":[6406,1511]},{"type":"Point","properties":{"state":"North Dakota","score":"1.32643180952","leaid":3820400,"name":"Zeeland Public School District 4"},"coordinates":[6603,5006]},{"type":"Point","properties":{"state":"Oregon","score":"1.32643090813","leaid":4106820,"name":"Jordan Valley School District 3"},"coordinates":[4807,4228]},{"type":"Point","properties":{"state":"Washington","score":"1.32643064214","leaid":5306270,"name":"Onion Creek School District"},"coordinates":[4729,5738]},{"type":"Point","properties":{"state":"Colorado","score":"1.32642815295","leaid":804140,"name":"Sierra Grande School District R-30"},"coordinates":[6016,2786]},{"type":"Point","properties":{"state":"Washington","score":"1.32642757803","leaid":5309630,"name":"Wellpinit School District"},"coordinates":[4710,5507]},{"type":"Point","properties":{"state":"Texas","score":"1.32642622805","leaid":4845240,"name":"Westhoff Independent School District"},"coordinates":[6848,643]},{"type":"Point","properties":{"state":"New Mexico","score":"1.32642620556","leaid":3501320,"name":"House Municipal Schools"},"coordinates":[6178,2061]},{"type":"Point","properties":{"state":"New Mexico","score":"1.32642377567","leaid":3501380,"name":"Jemez Mountain Public Schools"},"coordinates":[5892,2456]},{"type":"Point","properties":{"state":"Texas","score":"1.32642377268","leaid":4809980,"name":"Benjamin Independent School District"},"coordinates":[6607,1785]},{"type":"Point","properties":{"state":"New Mexico","score":"1.3264225881","leaid":3502340,"name":"San Jon Municipal Schools"},"coordinates":[6238,2182]},{"type":"Point","properties":{"state":"Washington","score":"1.32642246174","leaid":5302160,"name":"Dixie School District"},"coordinates":[4693,5050]},{"type":"Point","properties":{"state":"Colorado","score":"1.3264220935","leaid":806450,"name":"Sargent School District RE-33J"},"coordinates":[5948,2850]},{"type":"Point","properties":{"state":"Illinois","score":"1.32642161584","leaid":1740200,"name":"Venice Community Unit School District 3"},"coordinates":[7610,3106]},{"type":"Point","properties":{"state":"Kansas","score":"1.32642114351","leaid":2009810,"name":"Mullinville Unified School District 424"},"coordinates":[6640,2826]},{"type":"Point","properties":{"state":"South Dakota","score":"1.32642020423","leaid":4652770,"name":"Oelrichs School District 23-3"},"coordinates":[6248,4281]},{"type":"Point","properties":{"state":"Colorado","score":"1.3264195934","leaid":804890,"name":"Karval School District RE-23"},"coordinates":[6216,3126]},{"type":"Point","properties":{"state":"Texas","score":"1.32641945294","leaid":4832880,"name":"Nordheim Independent School District"},"coordinates":[6834,574]},{"type":"Point","properties":{"state":"Montana","score":"1.32641843769","leaid":3023340,"name":"Ryegate K-12 Schools"},"coordinates":[5620,5091]},{"type":"Point","properties":{"state":"Oklahoma","score":"1.32641689681","leaid":4013680,"name":"Hanna Public Schools"},"coordinates":[7013,2207]},{"type":"Point","properties":{"state":"Montana","score":"1.32641642191","leaid":3028380,"name":"Winifred K-12 Schools"},"coordinates":[5607,5419]},{"type":"Point","properties":{"state":"Alaska","score":"1.32641573837","leaid":200360,"name":"Kake City School District"},"coordinates":[3047,7868]},{"type":"Point","properties":{"state":"Oklahoma","score":"1.32640999094","leaid":4016410,"name":"Keyes Public Schools"},"coordinates":[6350,2624]},{"type":"Point","properties":{"state":"Colorado","score":"1.32640965978","leaid":800018,"name":"Idalia School District RJ-3"},"coordinates":[6346,3377]},{"type":"Point","properties":{"state":"Oklahoma","score":"1.32640863363","leaid":4008310,"name":"Coleman Public Schools"},"coordinates":[6958,1964]},{"type":"Point","properties":{"state":"Vermont","score":"1.32640780111","leaid":5003660,"name":"East Haven School District"},"coordinates":[9514,4660]},{"type":"Point","properties":{"state":"Oklahoma","score":"1.32640700514","leaid":4012870,"name":"Goodwell Public Schools"},"coordinates":[6414,2569]},{"type":"Point","properties":{"state":"North Dakota","score":"1.32640524143","leaid":3814190,"name":"North Central Public School District 28"},"coordinates":[6663,5739]},{"type":"Point","properties":{"state":"Texas","score":"1.3264049735","leaid":4841700,"name":"Strawn Independent School District"},"coordinates":[6742,1516]},{"type":"Point","properties":{"state":"Texas","score":"1.3264037372","leaid":4833960,"name":"Paint Creek Independent School District"},"coordinates":[6618,1650]},{"type":"Point","properties":{"state":"Vermont","score":"1.32640340078","leaid":5000024,"name":"Rivendell Interstate School District"},"coordinates":[9476,4470]},{"type":"Point","properties":{"state":"Alaska","score":"1.3264033403","leaid":200330,"name":"Hydaburg City School District"},"coordinates":[3164,7407]},{"type":"Point","properties":{"state":"Kansas","score":"1.3264008091","leaid":2005760,"name":"Elk Valley Unified School District 283"},"coordinates":[6994,2771]},{"type":"Point","properties":{"state":"Oklahoma","score":"1.32640074711","leaid":4033390,"name":"Yarbrough Public Schools"},"coordinates":[6415,2568]},{"type":"Point","properties":{"state":"Maine","score":"1.32639768015","leaid":2314040,"name":"Woodville"},"coordinates":[9860,4918]},{"type":"Point","properties":{"state":"Texas","score":"1.3263970667","leaid":4816320,"name":"Darrouzett Independent School District"},"coordinates":[6551,2530]},{"type":"Point","properties":{"state":"Maine","score":"1.32639592149","leaid":2304110,"name":"Caswell"},"coordinates":[9939,5269]},{"type":"Point","properties":{"state":"Oregon","score":"1.32639217238","leaid":4104020,"name":"Dayville School District 16J"},"coordinates":[4549,4616]},{"type":"Point","properties":{"state":"Texas","score":"1.32639136566","leaid":4835890,"name":"Pringle-Morse Consolidated Independent School District"},"coordinates":[6431,2430]},{"type":"Point","properties":{"state":"Maine","score":"1.32639126193","leaid":2305360,"name":"Eastport"},"coordinates":[9999,4797]},{"type":"Point","properties":{"state":"Washington","score":"1.32639059461","leaid":5300510,"name":"Bickleton School District"},"coordinates":[4470,5014]},{"type":"Point","properties":{"state":"New Jersey","score":"1.32638962657","leaid":3411010,"name":"Mountain Lakes Borough School District"},"coordinates":[9248,3684]},{"type":"Point","properties":{"state":"Texas","score":"1.32638952635","leaid":4800003,"name":"Rocksprings Independent School District"},"coordinates":[6564,858]},{"type":"Point","properties":{"state":"Washington","score":"1.32638895472","leaid":5308730,"name":"Taholah School District"},"coordinates":[4054,5364]},{"type":"Point","properties":{"state":"Nebraska","score":"1.32638881648","leaid":3176400,"name":"Santee Community Schools"},"coordinates":[6809,4192]},{"type":"Point","properties":{"state":"Washington","score":"1.32638786084","leaid":5305340,"name":"Mount Pleasant School District"},"coordinates":[4268,4901]},{"type":"Point","properties":{"state":"Montana","score":"1.32638719094","leaid":3021000,"name":"Plevna K-12 Schools"},"coordinates":[6114,5123]},{"type":"Point","properties":{"state":"Colorado","score":"1.32638597801","leaid":806090,"name":"Pritchett School District RE-3"},"coordinates":[6287,2771]},{"type":"Point","properties":{"state":"Oklahoma","score":"1.32638533606","leaid":4009480,"name":"Davidson Public Schools"},"coordinates":[6681,1956]},{"type":"Point","properties":{"state":"Montana","score":"1.32638524245","leaid":3008130,"name":"Custer K-12 Schools"},"coordinates":[5797,5047]},{"type":"Point","properties":{"state":"Arizona","score":"1.32638287349","leaid":407430,"name":"San Simon Unified District"},"coordinates":[5624,1443]},{"type":"Point","properties":{"state":"New Hampshire","score":"1.32638047886","leaid":3302200,"name":"Chatham School District"},"coordinates":[9596,4489]},{"type":"Point","properties":{"state":"Washington","score":"1.32637491502","leaid":5302730,"name":"Evergreen School District (Stevens)"},"coordinates":[4695,5615]},{"type":"Point","properties":{"state":"Nebraska","score":"1.32637362634","leaid":3176620,"name":"Shelton Public Schools"},"coordinates":[6717,3654]},{"type":"Point","properties":{"state":"Texas","score":"1.32637327319","leaid":4809000,"name":"Austwell-Tivoli Independent School District"},"coordinates":[6909,452]},{"type":"Point","properties":{"state":"Texas","score":"1.3263719629","leaid":4842000,"name":"Sweet Home Independent School District"},"coordinates":[6891,682]},{"type":"Point","properties":{"state":"New Mexico","score":"1.32636971136","leaid":3500001,"name":"Vaughn Municipal Schools"},"coordinates":[6042,2049]},{"type":"Point","properties":{"state":"Oklahoma","score":"1.32636904268","leaid":4013740,"name":"Hardesty Public Schools"},"coordinates":[6460,2574]},{"type":"Point","properties":{"state":"Oregon","score":"1.32636586742","leaid":4106270,"name":"Helix School District 1"},"coordinates":[4641,4975]},{"type":"Point","properties":{"state":"New Hampshire","score":"1.32636515891","leaid":3302370,"name":"Clarksville School District"},"coordinates":[9556,4726]},{"type":"Point","properties":{"state":"Texas","score":"1.32636388334","leaid":4812540,"name":"Calvert Independent School District"},"coordinates":[6932,1110]},{"type":"Point","properties":{"state":"Oklahoma","score":"1.32636386118","leaid":4029310,"name":"Sweetwater Public Schools"},"coordinates":[6594,2268]},{"type":"Point","properties":{"state":"Texas","score":"1.32636363822","leaid":4811550,"name":"Brookesmith Independent School District"},"coordinates":[6677,1256]},{"type":"Point","properties":{"state":"Nebraska","score":"1.3263623394","leaid":3103210,"name":"Arthur County Schools"},"coordinates":[6409,3862]},{"type":"Point","properties":{"state":"Michigan","score":"1.32635869756","leaid":2607470,"name":"Burt Township School District"},"coordinates":[8046,5188]},{"type":"Point","properties":{"state":"Washington","score":"1.32635863132","leaid":5310020,"name":"Wishram School District"},"coordinates":[4400,4926]},{"type":"Point","properties":{"state":"Oklahoma","score":"1.32635839034","leaid":4005910,"name":"Burlington Public Schools"},"coordinates":[6749,2648]},{"type":"Point","properties":{"state":"Washington","score":"1.32635731689","leaid":5309060,"name":"Trout Lake School District"},"coordinates":[4342,5011]},{"type":"Point","properties":{"state":"Colorado","score":"1.32635629143","leaid":806510,"name":"Hi-Plains School District R-23"},"coordinates":[6299,3273]},{"type":"Point","properties":{"state":"Alaska","score":"1.32635340535","leaid":200450,"name":"Klawock City School District"},"coordinates":[3135,7500]},{"type":"Point","properties":{"state":"Texas","score":"1.32635121242","leaid":4824330,"name":"Iraan-Sheffield Independent School District"},"coordinates":[6387,1090]},{"type":"Point","properties":{"state":"Colorado","score":"1.32635059328","leaid":804440,"name":"Pawnee School District RE-12"},"coordinates":[6144,3680]},{"type":"Point","properties":{"state":"Washington","score":"1.32634910659","leaid":5303270,"name":"Great Northern School District"},"coordinates":[4759,5453]},{"type":"Point","properties":{"state":"North Dakota","score":"1.32634863994","leaid":3808610,"name":"Halliday Public School District 19"},"coordinates":[6341,5365]},{"type":"Point","properties":{"state":"Montana","score":"1.32634634793","leaid":3019740,"name":"Opheim K-12 Schools"},"coordinates":[5917,5757]},{"type":"Point","properties":{"state":"Texas","score":"1.32634575044","leaid":4815570,"name":"Cranfills Gap Independent School District"},"coordinates":[6812,1314]},{"type":"Point","properties":{"state":"Oklahoma","score":"1.32634570811","leaid":4010260,"name":"Duke Public Schools"},"coordinates":[6630,2066]},{"type":"Point","properties":{"state":"New Mexico","score":"1.32634496687","leaid":3502280,"name":"Roy Municipal Schools"},"coordinates":[6148,2399]},{"type":"Point","properties":{"state":"Oregon","score":"1.32634135124","leaid":4107530,"name":"Long Creek School District 17"},"coordinates":[4594,4680]},{"type":"Point","properties":{"state":"North Dakota","score":"1.32633936155","leaid":3817670,"name":"Starkweather Public School District 44"},"coordinates":[6702,5652]},{"type":"Point","properties":{"state":"North Dakota","score":"1.32633897472","leaid":3800024,"name":"Powers Lake Public School District 27"},"coordinates":[6310,5680]},{"type":"Point","properties":{"state":"Oregon","score":"1.32633875191","leaid":4101740,"name":"Burnt River School District 30J"},"coordinates":[4689,4608]},{"type":"Point","properties":{"state":"North Dakota","score":"1.32633601974","leaid":3806010,"name":"Eightmile Public School District 6"},"coordinates":[6185,5553]},{"type":"Point","properties":{"state":"Texas","score":"1.32633557026","leaid":4832220,"name":"Nazareth Independent School District"},"coordinates":[6366,2035]},{"type":"Point","properties":{"state":"Maine","score":"1.32633446041","leaid":2302950,"name":"Beals"},"coordinates":[9960,4639]},{"type":"Point","properties":{"state":"Missouri","score":"1.3263337248","leaid":2928500,"name":"South Nodaway County R-IV School District"},"coordinates":[7125,3500]},{"type":"Point","properties":{"state":"Wyoming","score":"1.32633247388","leaid":5605680,"name":"Sheridan County School District 3"},"coordinates":[5920,4660]},{"type":"Point","properties":{"state":"Washington","score":"1.32632995647","leaid":5306330,"name":"Orchard Prairie School District"},"coordinates":[4780,5463]},{"type":"Point","properties":{"state":"Washington","score":"1.32632993536","leaid":5303870,"name":"Keller School District"},"coordinates":[4637,5554]},{"type":"Point","properties":{"state":"North Dakota","score":"1.32632959336","leaid":3805950,"name":"Edmore Public School District 2"},"coordinates":[6746,5642]},{"type":"Point","properties":{"state":"Alaska","score":"1.32632929146","leaid":200540,"name":"Nenana City School District"},"coordinates":[1469,9841]},{"type":"Point","properties":{"state":"Minnesota","score":"1.32632772067","leaid":2709360,"name":"Climax Public School District"},"coordinates":[6917,5432]},{"type":"Point","properties":{"state":"Oklahoma","score":"1.3263274527","leaid":4005310,"name":"Braman Public Schools"},"coordinates":[6863,2654]},{"type":"Point","properties":{"state":"California","score":"1.3263260568","leaid":629190,"name":"Owens Valley Unified School District"},"coordinates":[4688,2623]},{"type":"Point","properties":{"state":"Texas","score":"1.32632593585","leaid":4825790,"name":"Klondike Independent School District"},"coordinates":[6382,1511]},{"type":"Point","properties":{"state":"Missouri","score":"1.32632340537","leaid":2922470,"name":"Newtown-Harris R-III School District"},"coordinates":[7280,3552]},{"type":"Point","properties":{"state":"Oklahoma","score":"1.32632333545","leaid":4031420,"name":"Wakita Public Schools"},"coordinates":[6801,2643]},{"type":"Point","properties":{"state":"Oklahoma","score":"1.32632189723","leaid":4025800,"name":"Reydon Public Schools"},"coordinates":[6593,2324]},{"type":"Point","properties":{"state":"Kansas","score":"1.32632155505","leaid":2006990,"name":"Haviland Unified School District 474"},"coordinates":[6678,2835]},{"type":"Point","properties":{"state":"Maine","score":"1.32632074953","leaid":2307450,"name":"Lincolnville"},"coordinates":[9804,4570]},{"type":"Point","properties":{"state":"Montana","score":"1.32632046183","leaid":3027730,"name":"Westby K-12 Schools"},"coordinates":[6163,5760]},{"type":"Point","properties":{"state":"Texas","score":"1.32631939733","leaid":4810860,"name":"Borden County Independent School District"},"coordinates":[6434,1575]},{"type":"Point","properties":{"state":"North Dakota","score":"1.32631841767","leaid":3812430,"name":"McClusky Public School District 19"},"coordinates":[6539,5400]},{"type":"Point","properties":{"state":"Kansas","score":"1.32631768038","leaid":2011280,"name":"Pawnee Heights Unified School District 496"},"coordinates":[6647,2985]},{"type":"Point","properties":{"state":"Colorado","score":"1.3263168156","leaid":802880,"name":"Cheraw School District 31"},"coordinates":[6219,2963]},{"type":"Point","properties":{"state":"Texas","score":"1.32631670899","leaid":4829940,"name":"McMullen County Independent School District"},"coordinates":[6736,452]},{"type":"Point","properties":{"state":"South Dakota","score":"1.32631546996","leaid":4621300,"name":"Elk Mountain School District 16-2"},"coordinates":[6169,4413]},{"type":"Point","properties":{"state":"South Dakota","score":"1.32631508451","leaid":4664140,"name":"Rutland School District 39-4"},"coordinates":[6901,4517]},{"type":"Point","properties":{"state":"Vermont","score":"1.3263141155","leaid":5008640,"name":"Waterford School District"},"coordinates":[9511,4599]},{"type":"Point","properties":{"state":"New Mexico","score":"1.32631395583","leaid":3500090,"name":"Animas Public Schools"},"coordinates":[5666,1360]},{"type":"Point","properties":{"state":"New Mexico","score":"1.32631372322","leaid":3500720,"name":"Des Moines Municipal Schools"},"coordinates":[6185,2611]},{"type":"Point","properties":{"state":"Idaho","score":"1.32631348963","leaid":1603030,"name":"South Lemhi School District 292"},"coordinates":[5192,4670]},{"type":"Point","properties":{"state":"Oklahoma","score":"1.32631218106","leaid":4012180,"name":"Freedom Public Schools"},"coordinates":[6677,2613]},{"type":"Point","properties":{"state":"California","score":"1.3263115502","leaid":609665,"name":"Leggett Valley Unified School District"},"coordinates":[4113,3419]},{"type":"Point","properties":{"state":"Idaho","score":"1.32631093388","leaid":1600150,"name":"Avery School District 394"},"coordinates":[4937,5339]},{"type":"Point","properties":{"state":"Texas","score":"1.32631057405","leaid":4818840,"name":"Excelsior Independent School District"},"coordinates":[7175,1293]},{"type":"Point","properties":{"state":"Oklahoma","score":"1.32630966629","leaid":4010410,"name":"Dustin Public Schools"},"coordinates":[6998,2225]},{"type":"Point","properties":{"state":"Washington","score":"1.32630902682","leaid":5309900,"name":"Wilson Creek School District"},"coordinates":[4592,5385]},{"type":"Point","properties":{"state":"Texas","score":"1.3263086769","leaid":4840170,"name":"Sidney Independent School District"},"coordinates":[6717,1360]},{"type":"Point","properties":{"state":"California","score":"1.32630844565","leaid":638070,"name":"Stony Creek Joint Unified School District"},"coordinates":[4236,3352]},{"type":"Point","properties":{"state":"Washington","score":"1.32630823621","leaid":5304710,"name":"Mansfield School District"},"coordinates":[4538,5486]},{"type":"Point","properties":{"state":"Arizona","score":"1.32630809435","leaid":401330,"name":"Bowie Unified District"},"coordinates":[5596,1458]},{"type":"Point","properties":{"state":"Washington","score":"1.3263064474","leaid":5305970,"name":"Oakesdale School District"},"coordinates":[4788,5307]},{"type":"Point","properties":{"state":"New Hampshire","score":"1.32630399414","leaid":3302730,"name":"Dummer School District"},"coordinates":[9589,4595]},{"type":"Point","properties":{"state":"Oregon","score":"1.32630392818","leaid":4108280,"name":"Mitchell School District 55"},"coordinates":[4485,4641]},{"type":"Point","properties":{"state":"Oklahoma","score":"1.32630343606","leaid":4029820,"name":"Texhoma Public Schools"},"coordinates":[6399,2546]},{"type":"Point","properties":{"state":"Iowa","score":"1.32630059745","leaid":1903030,"name":"Lineville-Clio Community School District"},"coordinates":[7260,3606]},{"type":"Point","properties":{"state":"Missouri","score":"1.3262989037","leaid":2929470,"name":"Stet R-XV School District"},"coordinates":[7233,3306]},{"type":"Point","properties":{"state":"California","score":"1.32629863947","leaid":603610,"name":"Baker Valley Unified School District"},"coordinates":[4909,2225]},{"type":"Point","properties":{"state":"Texas","score":"1.32629838637","leaid":4827060,"name":"Leary Independent School District"},"coordinates":[7189,1753]},{"type":"Point","properties":{"state":"Minnesota","score":"1.32629579342","leaid":2709960,"name":"Cyrus Public School District"},"coordinates":[7029,4914]},{"type":"Point","properties":{"state":"Montana","score":"1.32629538888","leaid":3026730,"name":"Twin Bridges K-12 Schools"},"coordinates":[5300,4896]},{"type":"Point","properties":{"state":"Montana","score":"1.32629340196","leaid":3013530,"name":"Harrison K-12 Schools"},"coordinates":[5357,4936]},{"type":"Point","properties":{"state":"Texas","score":"1.32629123254","leaid":4838280,"name":"Rule Independent School District"},"coordinates":[6596,1683]},{"type":"Point","properties":{"state":"Texas","score":"1.32629097337","leaid":4845990,"name":"Wilson Independent School District"},"coordinates":[6405,1717]},{"type":"Point","properties":{"state":"Texas","score":"1.32628621454","leaid":4836630,"name":"Red Lick Independent School District"},"coordinates":[7192,1755]},{"type":"Point","properties":{"state":"Vermont","score":"1.3262844802","leaid":5003390,"name":"Craftsbury School District"},"coordinates":[9463,4664]},{"type":"Point","properties":{"state":"Texas","score":"1.32628168855","leaid":4841550,"name":"Sterling City Independent School District"},"coordinates":[6482,1332]},{"type":"Point","properties":{"state":"South Dakota","score":"1.32628153678","leaid":4669540,"name":"Stickney School District 01-2"},"coordinates":[6748,4387]},{"type":"Point","properties":{"state":"Missouri","score":"1.32628095835","leaid":2919920,"name":"Malta Bend R-V School District"},"coordinates":[7277,3244]},{"type":"Point","properties":{"state":"Texas","score":"1.3262806165","leaid":4846170,"name":"Wink-Loving Independent School District"},"coordinates":[6256,1309]},{"type":"Point","properties":{"state":"Texas","score":"1.3262803343","leaid":4840380,"name":"Sivells Bend Independent School District"},"coordinates":[6874,1859]},{"type":"Point","properties":{"state":"North Dakota","score":"1.32627958463","leaid":3812990,"name":"Minnewaukan Public School District 5"},"coordinates":[6663,5553]},{"type":"Point","properties":{"state":"Colorado","score":"1.32627776403","leaid":803270,"name":"Deer Trail School District 26J"},"coordinates":[6164,3353]},{"type":"Point","properties":{"state":"Massachusetts","score":"1.326277049","leaid":2509840,"name":"Provincetown School District"},"coordinates":[9692,3987]},{"type":"Point","properties":{"state":"Texas","score":"1.32627689105","leaid":4822680,"name":"Hartley Independent School District"},"coordinates":[6335,2383]},{"type":"Point","properties":{"state":"Texas","score":"1.32627625047","leaid":4823140,"name":"Higgins Independent School District"},"coordinates":[6582,2446]},{"type":"Point","properties":{"state":"Idaho","score":"1.32627602228","leaid":1600540,"name":"Camas County School District 121"},"coordinates":[5043,4324]},{"type":"Point","properties":{"state":"Texas","score":"1.32627565484","leaid":4828800,"name":"Malone Independent School District"},"coordinates":[6909,1353]},{"type":"Point","properties":{"state":"Texas","score":"1.32627535969","leaid":4831500,"name":"Motley County Independent School District"},"coordinates":[6499,1896]},{"type":"Point","properties":{"state":"Missouri","score":"1.32627468187","leaid":2906450,"name":"Cainsville R-I School District"},"coordinates":[7234,3568]},{"type":"Point","properties":{"state":"Colorado","score":"1.32627311237","leaid":807320,"name":"Wiley School District RE-13-JT"},"coordinates":[6301,2974]},{"type":"Point","properties":{"state":"Washington","score":"1.32627228898","leaid":5306360,"name":"Orient School District"},"coordinates":[4688,5760]},{"type":"Point","properties":{"state":"Oregon","score":"1.32627102361","leaid":4107980,"name":"McKenzie School District 68"},"coordinates":[4254,4534]},{"type":"Point","properties":{"state":"Washington","score":"1.3262705806","leaid":5303030,"name":"Glenwood School District"},"coordinates":[4366,5020]},{"type":"Point","properties":{"state":"New Mexico","score":"1.32627055741","leaid":3502730,"name":"Wagon Mound Public Schools"},"coordinates":[6095,2416]},{"type":"Point","properties":{"state":"South Dakota","score":"1.32627035538","leaid":4632340,"name":"Henry School District 14-2"},"coordinates":[6850,4723]},{"type":"Point","properties":{"state":"Colorado","score":"1.32626935932","leaid":805640,"name":"Buffalo School District RE-4"},"coordinates":[6235,3579]},{"type":"Point","properties":{"state":"California","score":"1.32626930193","leaid":600031,"name":"Pacific Unified School District"},"coordinates":[4347,2393]},{"type":"Point","properties":{"state":"North Dakota","score":"1.32626813841","leaid":3820130,"name":"Wing Public School District 28"},"coordinates":[6556,5310]},{"type":"Point","properties":{"state":"Maine","score":"1.32626718312","leaid":2300062,"name":"East Machias"},"coordinates":[9974,4680]},{"type":"Point","properties":{"state":"Oregon","score":"1.32626692815","leaid":4100047,"name":"Ione School District 2"},"coordinates":[4518,4884]},{"type":"Point","properties":{"state":"Colorado","score":"1.32626648154","leaid":802460,"name":"Bethune School District R-5"},"coordinates":[6332,3273]},{"type":"Point","properties":{"state":"North Dakota","score":"1.32626261413","leaid":3810260,"name":"Kensal Public School District 19"},"coordinates":[6717,5353]},{"type":"Point","properties":{"state":"Maine","score":"1.32626190476","leaid":2306870,"name":"Jefferson"},"coordinates":[9764,4508]},{"type":"Point","properties":{"state":"Texas","score":"1.32626067712","leaid":4808460,"name":"Anton Independent School District"},"coordinates":[6360,1846]},{"type":"Point","properties":{"state":"North Dakota","score":"1.32626016339","leaid":3803590,"name":"Burke Central Public School District 36"},"coordinates":[6318,5762]},{"type":"Point","properties":{"state":"Texas","score":"1.32625954816","leaid":4822350,"name":"Happy Independent School District"},"coordinates":[6391,2088]},{"type":"Point","properties":{"state":"Vermont","score":"1.3262589835","leaid":5008230,"name":"Flood Brook Union School District 20"},"coordinates":[9415,4296]},{"type":"Point","properties":{"state":"Texas","score":"1.32625614097","leaid":4809030,"name":"Avalon Independent School District"},"coordinates":[6919,1427]},{"type":"Point","properties":{"state":"Idaho","score":"1.32625591595","leaid":1602820,"name":"Rockland School District 382"},"coordinates":[5243,4123]},{"type":"Point","properties":{"state":"South Dakota","score":"1.32625574457","leaid":4622940,"name":"Faith School District 46-2"},"coordinates":[6372,4759]},{"type":"Point","properties":{"state":"Oklahoma","score":"1.32625349975","leaid":4009300,"name":"Cyril Public Schools"},"coordinates":[6772,2127]},{"type":"Point","properties":{"state":"Washington","score":"1.32625324734","leaid":5300090,"name":"Almira School District"},"coordinates":[4611,5458]},{"type":"Point","properties":{"state":"Oklahoma","score":"1.32625305336","leaid":4010680,"name":"Eldorado Public Schools"},"coordinates":[6621,2017]},{"type":"Point","properties":{"state":"Texas","score":"1.32625299329","leaid":4845690,"name":"Whitharral Independent School District"},"coordinates":[6342,1826]},{"type":"Point","properties":{"state":"Washington","score":"1.32625073478","leaid":5304150,"name":"LaCrosse School District"},"coordinates":[4722,5226]},{"type":"Point","properties":{"state":"Texas","score":"1.32625013573","leaid":4822850,"name":"Hedley Independent School District"},"coordinates":[6516,2120]},{"type":"Point","properties":{"state":"Oklahoma","score":"1.32624961484","leaid":4015420,"name":"Indiahoma Public Schools"},"coordinates":[6715,2055]},{"type":"Point","properties":{"state":"Arizona","score":"1.32624885458","leaid":406120,"name":"Peach Springs Unified District"},"coordinates":[5186,2293]},{"type":"Point","properties":{"state":"Texas","score":"1.32624822023","leaid":4840200,"name":"Sierra Blanca Independent School District"},"coordinates":[6027,1160]},{"type":"Point","properties":{"state":"New Hampshire","score":"1.32624717715","leaid":3306540,"name":"Sunapee School District"},"coordinates":[9493,4335]},{"type":"Point","properties":{"state":"Utah","score":"1.32624707037","leaid":4900180,"name":"Daggett School District"},"coordinates":[5571,3712]},{"type":"Point","properties":{"state":"Maine","score":"1.32624692846","leaid":2300067,"name":"Machiasport"},"coordinates":[9974,4680]},{"type":"Point","properties":{"state":"Washington","score":"1.32624588077","leaid":5303000,"name":"Garfield School District"},"coordinates":[4799,5278]},{"type":"Point","properties":{"state":"Alaska","score":"1.32624502358","leaid":200840,"name":"Yakutat City School District"},"coordinates":[2445,8536]},{"type":"Point","properties":{"state":"Maine","score":"1.32624484207","leaid":2305310,"name":"Easton"},"coordinates":[9930,5179]},{"type":"Point","properties":{"state":"Oregon","score":"1.32624390052","leaid":4102160,"name":"Blachly School District 090"},"coordinates":[4131,4545]},{"type":"Point","properties":{"state":"Oklahoma","score":"1.32624387329","leaid":4029010,"name":"Stringtown Public Schools"},"coordinates":[6996,2015]},{"type":"Point","properties":{"state":"Nebraska","score":"1.32624215511","leaid":3100067,"name":"Banner County Public Schools"},"coordinates":[6195,3859]},{"type":"Point","properties":{"state":"Oklahoma","score":"1.32624147524","leaid":4026940,"name":"Sasakwa Public Schools"},"coordinates":[6947,2140]},{"type":"Point","properties":{"state":"New Mexico","score":"1.32623838318","leaid":3500790,"name":"Dora Consolidated Schools"},"coordinates":[6237,1878]},{"type":"Point","properties":{"state":"Maine","score":"1.32623774575","leaid":2300008,"name":"Fayette"},"coordinates":[9715,4574]},{"type":"Point","properties":{"state":"Alaska","score":"1.32623740842","leaid":200690,"name":"Skagway School District"},"coordinates":[2905,8515]},{"type":"Point","properties":{"state":"Texas","score":"1.32623587752","leaid":4838910,"name":"San Isidro Independent School District"},"coordinates":[6746,0]},{"type":"Point","properties":{"state":"South Dakota","score":"1.32623561091","leaid":4670140,"name":"Summit School District 54-6"},"coordinates":[6893,4833]},{"type":"Point","properties":{"state":"Texas","score":"1.32623397721","leaid":4814920,"name":"Comstock Independent School District"},"coordinates":[6463,771]},{"type":"Point","properties":{"state":"Texas","score":"1.32623111069","leaid":4832250,"name":"Neches Independent School District"},"coordinates":[7056,1339]},{"type":"Point","properties":{"state":"Maine","score":"1.32623053349","leaid":2302500,"name":"Airline Community School District"},"coordinates":[9856,4688]},{"type":"Point","properties":{"state":"Kansas","score":"1.32623045014","leaid":2006900,"name":"Hanston Unified School District 228"},"coordinates":[6615,2966]},{"type":"Point","properties":{"state":"Kansas","score":"1.32623034442","leaid":2011190,"name":"Rolla Unified School District 217"},"coordinates":[6415,2705]},{"type":"Point","properties":{"state":"Colorado","score":"1.32623030968","leaid":806390,"name":"Sanford School District 6J"},"coordinates":[5961,2719]},{"type":"Point","properties":{"state":"Texas","score":"1.32623012067","leaid":4823700,"name":"Hubbard Independent School District"},"coordinates":[7144,1755]},{"type":"Point","properties":{"state":"Oregon","score":"1.32622888609","leaid":4108460,"name":"Monument School District 8"},"coordinates":[4561,4707]},{"type":"Point","properties":{"state":"Missouri","score":"1.32622801442","leaid":2905850,"name":"Breckenridge R-I School District"},"coordinates":[7231,3391]},{"type":"Point","properties":{"state":"California","score":"1.32622782785","leaid":602010,"name":"Alpaugh Unified School District"},"coordinates":[4554,2384]},{"type":"Point","properties":{"state":"Texas","score":"1.32622701169","leaid":4830000,"name":"Meadow Independent School District"},"coordinates":[6354,1722]},{"type":"Point","properties":{"state":"Montana","score":"1.32622681842","leaid":3000099,"name":"Heart Butte K-12 Schools"},"coordinates":[5247,5606]},{"type":"Point","properties":{"state":"North Dakota","score":"1.32622605835","leaid":3801950,"name":"Anamoose Public School District 14"},"coordinates":[6559,5504]},{"type":"Point","properties":{"state":"Washington","score":"1.32622598312","leaid":5304080,"name":"Klickitat School District"},"coordinates":[4380,4966]},{"type":"Point","properties":{"state":"Texas","score":"1.32622557349","leaid":4819500,"name":"Follett Independent School District"},"coordinates":[6570,2527]},{"type":"Point","properties":{"state":"Texas","score":"1.32622226025","leaid":4836450,"name":"Randolph Field Independent School District"},"coordinates":[6763,731]},{"type":"Point","properties":{"state":"Washington","score":"1.32622150464","leaid":5300002,"name":"Inchelium School District"},"coordinates":[4688,5612]},{"type":"Point","properties":{"state":"Kansas","score":"1.32622083137","leaid":2006870,"name":"Hamilton Unified School District 390"},"coordinates":[6984,2929]},{"type":"Point","properties":{"state":"Washington","score":"1.32621984163","leaid":5306390,"name":"Orondo School District"},"coordinates":[4478,5441]},{"type":"Point","properties":{"state":"Texas","score":"1.32621912813","leaid":4842540,"name":"Texhoma Independent School District"},"coordinates":[6399,2542]},{"type":"Point","properties":{"state":"Vermont","score":"1.32621881058","leaid":5003450,"name":"Danville School District"},"coordinates":[9488,4601]},{"type":"Point","properties":{"state":"Texas","score":"1.32621788161","leaid":4820130,"name":"Fort Hancock Independent School District"},"coordinates":[5975,1189]},{"type":"Point","properties":{"state":"Idaho","score":"1.32621756496","leaid":1602310,"name":"Murtaugh Joint School District 418"},"coordinates":[5108,4102]},{"type":"Point","properties":{"state":"Nebraska","score":"1.32621668593","leaid":3105280,"name":"Cody-Kilgore Public Schools"},"coordinates":[6455,4218]},{"type":"Point","properties":{"state":"Texas","score":"1.32621405648","leaid":4831920,"name":"Mullin Independent School District"},"coordinates":[6724,1258]},{"type":"Point","properties":{"state":"Washington","score":"1.32621334938","leaid":5302520,"name":"Endicott School District"},"coordinates":[4741,5257]},{"type":"Point","properties":{"state":"Colorado","score":"1.32621268461","leaid":806840,"name":"Swink School District 33"},"coordinates":[6207,2937]},{"type":"Point","properties":{"state":"Washington","score":"1.32620916402","leaid":5307680,"name":"Satsop School District"},"coordinates":[4138,5275]},{"type":"Point","properties":{"state":"Texas","score":"1.32620895366","leaid":4842420,"name":"Terrell County Independent School District"},"coordinates":[6335,890]},{"type":"Point","properties":{"state":"South Dakota","score":"1.32620877602","leaid":4635400,"name":"Hurley School District 60-2"},"coordinates":[6888,4307]},{"type":"Point","properties":{"state":"Texas","score":"1.32620648892","leaid":4820970,"name":"Gold-Burg Independent School District"},"coordinates":[6803,1809]},{"type":"Point","properties":{"state":"Texas","score":"1.32620555665","leaid":4821480,"name":"Grandfalls-Royalty Independent School District"},"coordinates":[6288,1202]},{"type":"Point","properties":{"state":"North Dakota","score":"1.32620491022","leaid":3813440,"name":"Munich Public School District 19"},"coordinates":[6706,5707]},{"type":"Point","properties":{"state":"North Dakota","score":"1.3262043895","leaid":3815150,"name":"Pingree-Buchanan Public School District 10"},"coordinates":[6698,5317]},{"type":"Point","properties":{"state":"Texas","score":"1.3262034109","leaid":4834560,"name":"Penelope Independent School District"},"coordinates":[6904,1335]},{"type":"Point","properties":{"state":"Texas","score":"1.32620264458","leaid":4833980,"name":"Paint Rock Independent School District"},"coordinates":[6593,1245]},{"type":"Point","properties":{"state":"Colorado","score":"1.32620254787","leaid":801980,"name":"Agate School District 300"},"coordinates":[6174,3314]},{"type":"Point","properties":{"state":"Montana","score":"1.32620207712","leaid":3003270,"name":"Belfry K-12 Schools"},"coordinates":[5646,4791]},{"type":"Point","properties":{"state":"North Dakota","score":"1.32620162449","leaid":3817520,"name":"St. Thomas Public School District 43"},"coordinates":[6851,5695]},{"type":"Point","properties":{"state":"North Dakota","score":"1.32620117418","leaid":3814730,"name":"Page Public School District 80"},"coordinates":[6838,5316]},{"type":"Point","properties":{"state":"Oklahoma","score":"1.32620063943","leaid":4018270,"name":"Lone Wolf Public Schools"},"coordinates":[6663,2151]},{"type":"Point","properties":{"state":"Oklahoma","score":"1.32620062867","leaid":4006240,"name":"Calumet Public Schools"},"coordinates":[6781,2310]},{"type":"Point","properties":{"state":"Missouri","score":"1.32619955211","leaid":2911760,"name":"Fairfax R-III School District"},"coordinates":[7065,3542]}]}},"arcs":[],"transform":{"scale":[0.00959477587758776,0.003845802580258025],"translate":[-163.180853,26.71702]}}