{"type": "FeatureCollection", "features": [{"geometry": {"type": "Point", "coordinates": [-118.25724, 34.056280000000001]}, "type": "Feature", "id": null, "properties": {"state": "California", "name": "Los Angeles Unified School District"}}, {"geometry": {"type": "Point", "coordinates": [-82.452173000000002, 27.949624]}, "type": "Feature", "id": null, "properties": {"state": "Florida", "name": "Hillsborough County School District"}}, {"geometry": {"type": "Point", "coordinates": [-89.974852999999996, 35.130825999999999]}, "type": "Feature", "id": null, "properties": {"state": "Tennessee", "name": "Memphis City School District"}}, {"geometry": {"type": "Point", "coordinates": [-87.630818999999988, 41.880358000000001]}, "type": "Feature", "id": null, "properties": {"state": "Illinois", "name": "Chicago Public School District 299"}}, {"geometry": {"type": "Point", "coordinates": [-115.21089099999999, 36.144597999999995]}, "type": "Feature", "id": null, "properties": {"state": "Nevada", "name": "Clark County School District"}}, {"geometry": {"type": "Point", "coordinates": [-80.841274999999996, 35.218449999999997]}, "type": "Feature", "id": null, "properties": {"state": "North Carolina", "name": "Charlotte-Mecklenburg Schools"}}, {"geometry": {"type": "Point", "coordinates": [-122.331002, 47.581243999999998]}, "type": "Feature", "id": null, "properties": {"state": "Washington", "name": "Seattle School District"}}, {"geometry": {"type": "Point", "coordinates": [-94.461616000000006, 37.05491]}, "type": "Feature", "id": null, "properties": {"state": "Missouri", "name": "Joplin R-VIII School District"}}, {"geometry": {"type": "Point", "coordinates": [-76.613672999999991, 39.311298999999998]}, "type": "Feature", "id": null, "properties": {"state": "Maryland", "name": "Baltimore City Public Schools"}}, {"geometry": {"type": "Point", "coordinates": [-122.25871799999999, 37.796284]}, "type": "Feature", "id": null, "properties": {"state": "California", "name": "Oakland Unified School District"}}, {"geometry": {"type": "Point", "coordinates": [-122.42187800000001, 37.779443000000001]}, "type": "Feature", "id": null, "properties": {"state": "California", "name": "San Francisco Unified School District"}}, {"geometry": {"type": "Point", "coordinates": [-75.161665999999997, 39.961488000000003]}, "type": "Feature", "id": null, "properties": {"state": "Pennsylvania", "name": "Philadelphia City School District"}}, {"geometry": {"type": "Point", "coordinates": [-95.933501000000007, 36.119611999999996]}, "type": "Feature", "id": null, "properties": {"state": "Oklahoma", "name": "Tulsa Public Schools"}}, {"geometry": {"type": "Point", "coordinates": [-77.005875000000003, 38.905828999999997]}, "type": "Feature", "id": null, "properties": {"state": "District of Columbia", "name": "District of Columbia Public Schools"}}, {"geometry": {"type": "Point", "coordinates": [-111.88659299999999, 40.980796000000005]}, "type": "Feature", "id": null, "properties": {"state": "Utah", "name": "Davis School District"}}, {"geometry": {"type": "Point", "coordinates": [-97.355493999999993, 32.811377]}, "type": "Feature", "id": null, "properties": {"state": "Texas", "name": "Dallas Independent School District"}}, {"geometry": {"type": "Point", "coordinates": [-73.192684, 41.180434000000005]}, "type": "Feature", "id": null, "properties": {"state": "Connecticut", "name": "Bridgeport School District"}}, {"geometry": {"type": "Point", "coordinates": [-71.05883, 42.358905]}, "type": "Feature", "id": null, "properties": {"state": "Massachusetts", "name": "Boston School District"}}, {"geometry": {"type": "Point", "coordinates": [-89.976315, 35.128509999999999]}, "type": "Feature", "id": null, "properties": {"state": "Tennessee", "name": "Shelby County School District"}}, {"geometry": {"type": "Point", "coordinates": [-81.092841000000007, 32.076430999999999]}, "type": "Feature", "id": null, "properties": {"state": "Georgia", "name": "Chatham County School District"}}, {"geometry": {"type": "Point", "coordinates": [-86.154590999999996, 39.776749000000002]}, "type": "Feature", "id": null, "properties": {"state": "Indiana", "name": "Indianapolis Public Schools"}}, {"geometry": {"type": "Point", "coordinates": [-87.979534999999998, 43.049171999999999]}, "type": "Feature", "id": null, "properties": {"state": "Wisconsin", "name": "Milwaukee School District"}}, {"geometry": {"type": "Point", "coordinates": [-79.793216000000001, 36.080843000000002]}, "type": "Feature", "id": null, "properties": {"state": "North Carolina", "name": "Guilford County Schools"}}, {"geometry": {"type": "Point", "coordinates": [-95.453411000000003, 29.801628000000004]}, "type": "Feature", "id": null, "properties": {"state": "Texas", "name": "Houston Independent School District"}}, {"geometry": {"type": "Point", "coordinates": [-122.35849099999999, 37.934043000000003]}, "type": "Feature", "id": null, "properties": {"state": "California", "name": "West Contra Costa Unified School District"}}, {"geometry": {"type": "Point", "coordinates": [-111.879124, 40.766796999999997]}, "type": "Feature", "id": null, "properties": {"state": "Utah", "name": "Salt Lake City School District"}}, {"geometry": {"type": "Point", "coordinates": [-81.384856999999997, 28.549478000000004]}, "type": "Feature", "id": null, "properties": {"state": "Florida", "name": "Orange County School District"}}, {"geometry": {"type": "Point", "coordinates": [-122.33795000000001, 47.462214000000003]}, "type": "Feature", "id": null, "properties": {"state": "Washington", "name": "Highline School District"}}, {"geometry": {"type": "Point", "coordinates": [-122.00686599999999, 37.986664000000005]}, "type": "Feature", "id": null, "properties": {"state": "California", "name": "Mount Diablo Unified School District"}}, {"geometry": {"type": "Point", "coordinates": [-83.077021999999999, 42.369036000000001]}, "type": "Feature", "id": null, "properties": {"state": "Michigan", "name": "Detroit City School District"}}, {"geometry": {"type": "Point", "coordinates": [-117.146727, 32.754989000000002]}, "type": "Feature", "id": null, "properties": {"state": "California", "name": "San Diego City Unified School District"}}, {"geometry": {"type": "Point", "coordinates": [-78.897059999999996, 35.997135999999998]}, "type": "Feature", "id": null, "properties": {"state": "North Carolina", "name": "Durham Public Schools"}}, {"geometry": {"type": "Point", "coordinates": [-104.983255, 39.730802000000004]}, "type": "Feature", "id": null, "properties": {"state": "Colorado", "name": "Denver County School District 1"}}, {"geometry": {"type": "Point", "coordinates": [-122.1816, 47.372430000000001]}, "type": "Feature", "id": null, "properties": {"state": "Washington", "name": "Kent School District"}}, {"geometry": {"type": "Point", "coordinates": [-80.190721999999994, 25.788930000000001]}, "type": "Feature", "id": null, "properties": {"state": "Florida", "name": "Dade County School District"}}, {"geometry": {"type": "Point", "coordinates": [-95.220208999999997, 30.133384999999997]}, "type": "Feature", "id": null, "properties": {"state": "Texas", "name": "New Caney Independent School District"}}, {"geometry": {"type": "Point", "coordinates": [-122.31117399999999, 47.320368000000002]}, "type": "Feature", "id": null, "properties": {"state": "Washington", "name": "Federal Way School District"}}, {"geometry": {"type": "Point", "coordinates": [-121.97683400000001, 37.812040000000003]}, "type": "Feature", "id": null, "properties": {"state": "California", "name": "San Ramon Valley Unified School District"}}, {"geometry": {"type": "Point", "coordinates": [-81.142578999999998, 36.159490000000005]}, "type": "Feature", "id": null, "properties": {"state": "North Carolina", "name": "Wilkes County Schools"}}, {"geometry": {"type": "Point", "coordinates": [-85.684967, 38.200053000000004]}, "type": "Feature", "id": null, "properties": {"state": "Kentucky", "name": "Jefferson County School District"}}, {"geometry": {"type": "Point", "coordinates": [-78.617677, 35.832271999999996]}, "type": "Feature", "id": null, "properties": {"state": "North Carolina", "name": "Wake County Schools"}}, {"geometry": {"type": "Point", "coordinates": [-90.194509999999994, 38.633000000000003]}, "type": "Feature", "id": null, "properties": {"state": "Missouri", "name": "St. Louis City School District"}}, {"geometry": {"type": "Point", "coordinates": [-80.140220999999997, 26.114630999999999]}, "type": "Feature", "id": null, "properties": {"state": "Florida", "name": "Broward County School District"}}, {"geometry": {"type": "Point", "coordinates": [-77.433339000000004, 37.541319999999999]}, "type": "Feature", "id": null, "properties": {"state": "Virginia", "name": "Richmond City Public Schools"}}, {"geometry": {"type": "Point", "coordinates": [-96.683043000000012, 32.909143999999998]}, "type": "Feature", "id": null, "properties": {"state": "Texas", "name": "Garland Independent School District"}}, {"geometry": {"type": "Point", "coordinates": [-82.396424999999994, 34.843734000000005]}, "type": "Feature", "id": null, "properties": {"state": "South Carolina", "name": "Greenville County School District"}}, {"geometry": {"type": "Point", "coordinates": [-106.57293200000001, 35.103109000000003]}, "type": "Feature", "id": null, "properties": {"state": "New Mexico", "name": "Albuquerque Public Schools"}}, {"geometry": {"type": "Point", "coordinates": [-79.930869999999999, 32.788184999999999]}, "type": "Feature", "id": null, "properties": {"state": "South Carolina", "name": "Charleston County School District"}}, {"geometry": {"type": "Point", "coordinates": [-84.537618999999992, 33.938784999999996]}, "type": "Feature", "id": null, "properties": {"state": "Georgia", "name": "Cobb County School District"}}, {"geometry": {"type": "Point", "coordinates": [-78.896658000000002, 35.014357000000004]}, "type": "Feature", "id": null, "properties": {"state": "North Carolina", "name": "Cumberland County Schools"}}, {"geometry": {"type": "Point", "coordinates": [-98.667264000000003, 29.306390000000004]}, "type": "Feature", "id": null, "properties": {"state": "Texas", "name": "Southwest Independent School District"}}, {"geometry": {"type": "Point", "coordinates": [-81.966757999999999, 34.854378999999994]}, "type": "Feature", "id": null, "properties": {"state": "South Carolina", "name": "Spartanburg School District 6"}}, {"geometry": {"type": "Point", "coordinates": [-89.683695999999998, 39.799205000000001]}, "type": "Feature", "id": null, "properties": {"state": "Illinois", "name": "Springfield School District 186"}}, {"geometry": {"type": "Point", "coordinates": [-81.177340000000001, 35.249955]}, "type": "Feature", "id": null, "properties": {"state": "North Carolina", "name": "Gaston County Schools"}}, {"geometry": {"type": "Point", "coordinates": [-82.793548999999999, 27.914071999999997]}, "type": "Feature", "id": null, "properties": {"state": "Florida", "name": "Pinellas County School District"}}, {"geometry": {"type": "Point", "coordinates": [-111.889298, 40.716281000000002]}, "type": "Feature", "id": null, "properties": {"state": "Utah", "name": "Granite School District"}}, {"geometry": {"type": "Point", "coordinates": [-79.295757999999992, 33.380796000000004]}, "type": "Feature", "id": null, "properties": {"state": "South Carolina", "name": "Georgetown County School District"}}, {"geometry": {"type": "Point", "coordinates": [-81.728212999999997, 28.812865999999996]}, "type": "Feature", "id": null, "properties": {"state": "Florida", "name": "Lake County School District"}}, {"geometry": {"type": "Point", "coordinates": [-157.85492400000001, 21.308729999999997]}, "type": "Feature", "id": null, "properties": {"state": "Hawaii", "name": "Hawaii Department of Education"}}, {"geometry": {"type": "Point", "coordinates": [-80.659295999999998, 40.044463]}, "type": "Feature", "id": null, "properties": {"state": "West Virginia", "name": "Ohio County School District"}}, {"geometry": {"type": "Point", "coordinates": [-97.398319999999998, 35.449738000000004]}, "type": "Feature", "id": null, "properties": {"state": "Oklahoma", "name": "Midwest City-Del City Schools"}}, {"geometry": {"type": "Point", "coordinates": [-86.765435999999994, 36.122534000000002]}, "type": "Feature", "id": null, "properties": {"state": "Tennessee", "name": "Nashville-Davidson County School District"}}, {"geometry": {"type": "Point", "coordinates": [-122.217192, 47.311146000000001]}, "type": "Feature", "id": null, "properties": {"state": "Washington", "name": "Auburn School District"}}, {"geometry": {"type": "Point", "coordinates": [-111.984587, 40.617259000000004]}, "type": "Feature", "id": null, "properties": {"state": "Utah", "name": "Jordan School District"}}, {"geometry": {"type": "Point", "coordinates": [-121.95467499999999, 37.508453000000003]}, "type": "Feature", "id": null, "properties": {"state": "California", "name": "Fremont Unified School District"}}, {"geometry": {"type": "Point", "coordinates": [-84.054175000000001, 34.015978999999994]}, "type": "Feature", "id": null, "properties": {"state": "Georgia", "name": "Gwinnett County School District"}}, {"geometry": {"type": "Point", "coordinates": [-111.905496, 40.584468999999999]}, "type": "Feature", "id": null, "properties": {"state": "Utah", "name": "Canyons School District"}}, {"geometry": {"type": "Point", "coordinates": [-81.36148399999999, 28.298862]}, "type": "Feature", "id": null, "properties": {"state": "Florida", "name": "Osceola County School District"}}, {"geometry": {"type": "Point", "coordinates": [-83.915902000000003, 35.961244999999998]}, "type": "Feature", "id": null, "properties": {"state": "Tennessee", "name": "Knox County School District"}}, {"geometry": {"type": "Point", "coordinates": [-71.421262999999996, 41.817710999999996]}, "type": "Feature", "id": null, "properties": {"state": "Rhode Island", "name": "Providence School District"}}, {"geometry": {"type": "Point", "coordinates": [-94.285420999999999, 39.020578]}, "type": "Feature", "id": null, "properties": {"state": "Missouri", "name": "Blue Springs R-IV School District"}}, {"geometry": {"type": "Point", "coordinates": [-95.580113999999995, 32.30885]}, "type": "Feature", "id": null, "properties": {"state": "Texas", "name": "Brownsboro Independent School District"}}, {"geometry": {"type": "Point", "coordinates": [-81.651060999999999, 30.316296999999999]}, "type": "Feature", "id": null, "properties": {"state": "Florida", "name": "Duval County School District"}}, {"geometry": {"type": "Point", "coordinates": [-81.845232999999993, 27.874590000000001]}, "type": "Feature", "id": null, "properties": {"state": "Florida", "name": "Polk County School District"}}, {"geometry": {"type": "Point", "coordinates": [-84.355046999999999, 35.534671000000003]}, "type": "Feature", "id": null, "properties": {"state": "Tennessee", "name": "Monroe County School District"}}, {"geometry": {"type": "Point", "coordinates": [-71.484773000000004, 42.754571999999996]}, "type": "Feature", "id": null, "properties": {"state": "New Hampshire", "name": "Nashua School District"}}, {"geometry": {"type": "Point", "coordinates": [-122.09337099999999, 37.656838]}, "type": "Feature", "id": null, "properties": {"state": "California", "name": "Hayward Unified School District"}}, {"geometry": {"type": "Point", "coordinates": [-122.671274, 45.534746000000005]}, "type": "Feature", "id": null, "properties": {"state": "Oregon", "name": "Portland School District 1J"}}, {"geometry": {"type": "Point", "coordinates": [-76.759757999999991, 38.815333000000003]}, "type": "Feature", "id": null, "properties": {"state": "Maryland", "name": "Prince George's County Public Schools"}}, {"geometry": {"type": "Point", "coordinates": [-76.24839399999999, 36.714410000000001]}, "type": "Feature", "id": null, "properties": {"state": "Virginia", "name": "Chesapeake City Public Schools"}}, {"geometry": {"type": "Point", "coordinates": [-121.813795, 38.014400000000002]}, "type": "Feature", "id": null, "properties": {"state": "California", "name": "Antioch Unified School District"}}, {"geometry": {"type": "Point", "coordinates": [-77.962016000000006, 35.386959000000004]}, "type": "Feature", "id": null, "properties": {"state": "North Carolina", "name": "Wayne County Public Schools"}}, {"geometry": {"type": "Point", "coordinates": [-121.791781, 37.688992999999996]}, "type": "Feature", "id": null, "properties": {"state": "California", "name": "Livermore Valley Joint Unified School District"}}, {"geometry": {"type": "Point", "coordinates": [-77.224249, 38.868245000000002]}, "type": "Feature", "id": null, "properties": {"state": "Virginia", "name": "Fairfax County Public Schools"}}, {"geometry": {"type": "Point", "coordinates": [-97.465052, 35.500372999999996]}, "type": "Feature", "id": null, "properties": {"state": "Oklahoma", "name": "Oklahoma City Public Schools"}}, {"geometry": {"type": "Point", "coordinates": [-84.392212999999998, 33.748849]}, "type": "Feature", "id": null, "properties": {"state": "Georgia", "name": "Atlanta City School District"}}, {"geometry": {"type": "Point", "coordinates": [-97.756, 30.272200000000002]}, "type": "Feature", "id": null, "properties": {"state": "Texas", "name": "Austin Independent School District"}}, {"geometry": {"type": "Point", "coordinates": [-79.408816999999999, 36.101067999999998]}, "type": "Feature", "id": null, "properties": {"state": "North Carolina", "name": "Alamance-Burlington Schools"}}, {"geometry": {"type": "Point", "coordinates": [-118.13386299999999, 34.140180000000001]}, "type": "Feature", "id": null, "properties": {"state": "California", "name": "Pasadena Unified School District"}}, {"geometry": {"type": "Point", "coordinates": [-75.545079000000001, 39.739846999999997]}, "type": "Feature", "id": null, "properties": {"state": "Delaware", "name": "Christina School District"}}, {"geometry": {"type": "Point", "coordinates": [-81.218268999999992, 35.689813999999998]}, "type": "Feature", "id": null, "properties": {"state": "North Carolina", "name": "Catawba County Schools"}}, {"geometry": {"type": "Point", "coordinates": [-77.157607999999996, 39.094607000000003]}, "type": "Feature", "id": null, "properties": {"state": "Maryland", "name": "Montgomery County Public Schools"}}, {"geometry": {"type": "Point", "coordinates": [-77.616349999999997, 43.153960999999995]}, "type": "Feature", "id": null, "properties": {"state": "New York", "name": "Rochester City School District"}}, {"geometry": {"type": "Point", "coordinates": [-82.476282999999995, 28.262407]}, "type": "Feature", "id": null, "properties": {"state": "Florida", "name": "Pasco County School District"}}, {"geometry": {"type": "Point", "coordinates": [-80.273560000000003, 36.067979999999999]}, "type": "Feature", "id": null, "properties": {"state": "North Carolina", "name": "Forsyth County Schools"}}, {"geometry": {"type": "Point", "coordinates": [-92.830500999999998, 37.502673999999999]}, "type": "Feature", "id": null, "properties": {"state": "Missouri", "name": "Laclede County R-I School District"}}, {"geometry": {"type": "Point", "coordinates": [-121.56209199999999, 37.015571000000001]}, "type": "Feature", "id": null, "properties": {"state": "California", "name": "Gilroy Unified School District"}}, {"geometry": {"type": "Point", "coordinates": [-119.8099, 39.536700000000003]}, "type": "Feature", "id": null, "properties": {"state": "Nevada", "name": "Washoe County School District"}}, {"geometry": {"type": "Point", "coordinates": [-74.170884999999998, 40.737896999999997]}, "type": "Feature", "id": null, "properties": {"state": "New Jersey", "name": "Newark City School District"}}, {"geometry": {"type": "Point", "coordinates": [-81.217691000000002, 34.124411000000002]}, "type": "Feature", "id": null, "properties": {"state": "South Carolina", "name": "Lexington School District 5"}}, {"geometry": {"type": "Point", "coordinates": [-117.79267, 33.676127000000001]}, "type": "Feature", "id": null, "properties": {"state": "California", "name": "Irvine Unified School District"}}, {"geometry": {"type": "Point", "coordinates": [-82.586973, 35.605798999999998]}, "type": "Feature", "id": null, "properties": {"state": "North Carolina", "name": "Buncombe County Schools"}}, {"geometry": {"type": "Point", "coordinates": [-90.183159000000003, 32.291484999999994]}, "type": "Feature", "id": null, "properties": {"state": "Mississippi", "name": "Jackson Public School District"}}, {"geometry": {"type": "Point", "coordinates": [-80.093412000000001, 26.650921999999998]}, "type": "Feature", "id": null, "properties": {"state": "Florida", "name": "Palm Beach County School District"}}, {"geometry": {"type": "Point", "coordinates": [-121.91110800000001, 37.335473999999998]}, "type": "Feature", "id": null, "properties": {"state": "California", "name": "San Jose Unified School District"}}, {"geometry": {"type": "Point", "coordinates": [-122.27286699999999, 37.869652000000002]}, "type": "Feature", "id": null, "properties": {"state": "California", "name": "Berkeley Unified School District"}}, {"geometry": {"type": "Point", "coordinates": [-95.584649999999996, 29.921321000000002]}, "type": "Feature", "id": null, "properties": {"state": "Texas", "name": "Cypress-Fairbanks Independent School District"}}, {"geometry": {"type": "Point", "coordinates": [-118.21619099999999, 33.892272999999996]}, "type": "Feature", "id": null, "properties": {"state": "California", "name": "Compton Unified School District"}}, {"geometry": {"type": "Point", "coordinates": [-71.159912000000006, 42.707737000000002]}, "type": "Feature", "id": null, "properties": {"state": "Massachusetts", "name": "Lawrence School District"}}, {"geometry": {"type": "Point", "coordinates": [-70.293606000000011, 43.69697]}, "type": "Feature", "id": null, "properties": {"state": "Maine", "name": "Portland"}}, {"geometry": {"type": "Point", "coordinates": [-90.054967000000005, 29.886361999999998]}, "type": "Feature", "id": null, "properties": {"state": "Louisiana", "name": "Jefferson Parish School District"}}, {"geometry": {"type": "Point", "coordinates": [-95.959894999999989, 41.268177000000001]}, "type": "Feature", "id": null, "properties": {"state": "Nebraska", "name": "Omaha Public Schools"}}, {"geometry": {"type": "Point", "coordinates": [-76.558398999999994, 38.975436999999999]}, "type": "Feature", "id": null, "properties": {"state": "Maryland", "name": "Anne Arundel County Public Schools"}}, {"geometry": {"type": "Point", "coordinates": [-71.806247999999997, 42.262734000000002]}, "type": "Feature", "id": null, "properties": {"state": "Massachusetts", "name": "Worcester School District"}}, {"geometry": {"type": "Point", "coordinates": [-122.128754, 37.689221999999994]}, "type": "Feature", "id": null, "properties": {"state": "California", "name": "San Lorenzo Unified School District"}}]}